name,pref,city,district,latitude,longitude,urban_point,in_mesh_point,is_island
北里大学　獣医学部　附属フィールドサイエンスセンター　環境保全型畜産研究部門　八雲牧場,北海道,八雲町,上八雲,42.256007,140.13689,446.8088891889386,,False
北海道大学　北方生物圏フィールド科学センター　森林圏ステーション　北管理部雨龍研究林,北海道,幌加内町,字母子里,44.362949,142.25697,508.83061683776066,,False
北海道大学　北方生物圏フィールド科学センター　森林圏ステーション　南管理部　檜山研究林,北海道,上ノ国町,字小森,41.757419,140.151043,544.9989685254302,,False
北海道大学　北方生物圏フィールド科学センター　耕地圏ステーション　静内研究牧場,北海道,新ひだか町,静内御園,42.433846,142.480459,618.8160872129453,,False
北海道大学　北方生物圏フィールド科学センター　森林圏ステーション　北管理部　中川研究林,北海道,音威子府村,字音威子府,44.720637,142.25132,636.9129036105463,,False
琉球大学　農学部　附属亜熱帯フィールド科学教育研究センター　与那フィールド,沖縄県,国頭村,字与那,26.763832,128.215985,675.1442374929043,4028111732,False
東京大学　地震研究所　観測開発基盤センター　　室戸地殻変動観測所,高知県,室戸市,領家,33.247952,134.177902,1030.5927517891541,4934619433,False
北海道大学　北方生物圏フィールド科学センター　水圏ステーション　厚岸臨海実験所,北海道,厚岸町,愛冠,43.017969,144.839131,1123.98809375545,,False
京都大学　フィールド科学教育研究センター　北海道研究林標茶区,北海道,標茶町,北標茶,43.323304,144.612322,1130.6773585445374,6444748844,False
東京大学　大学院　人文社会系研究科　附属北海文化研究常呂実習施設,北海道,北見市,常呂町字岐阜,44.122638,143.974496,1173.8468086869698,,False
北海道大学　北方生物圏フィールド科学センター　森林圏ステーション　北管理部　天塩研究林,北海道,幌延町,字問寒別,44.917482,142.019415,1179.3933852436583,6742300121,False
独立行政法人宇宙航空研究開発機構　内之浦宇宙空間観測所,鹿児島県,肝付町,南方,31.251247,131.076139,1333.468501620283,,False
独立行政法人日本原子力研究開発機構　青森研究開発センター,青森県,六ヶ所村,大字尾駮,40.951126,141.326162,1336.8637775410375,,False
独立行政法人海洋研究開発機構　むつ研究所,青森県,むつ市,大字関根字北関根,41.363121,141.238404,1340.0453928332417,,False
大学共同利用機関法人自然科学研究機構　核融合科学研究所　ヘリカル研究部　六ヶ所研究センター,青森県,六ヶ所村,大字尾駮,40.962401,141.326566,1383.4569215692738,,False
北海道大学　北方生物圏フィールド科学センター　水圏ステーション　洞爺臨湖実験所,北海道,洞爺湖町,字月浦,42.609138,140.791426,1469.0507471243016,,False
地方独立行政法人北海道立総合研究機構　農業研究本部　北見農業試験場,北海道,訓子府町,字高園,43.752559,143.718753,1534.8409628565907,,False
公益財団法人核物質管理センター　六ヶ所保障措置センター,青森県,六ヶ所村,大字尾駮,40.97993,141.346314,1702.2071869893578,,False
星槎大学,北海道,芦別市,緑泉町,43.459416,142.166334,1752.5187674308866,,False
北里大学　海洋生命科学部,岩手県,大船渡市,三陸町越喜来字烏頭,39.114056,141.872951,1782.3781126136817,,False
北里大学　大学院　海洋生命科学研究科,岩手県,大船渡市,三陸町越喜来字烏頭,39.114056,141.872951,1782.3781126136817,,False
沖縄県農業研究センター　石垣支所,沖縄県,石垣市,字真栄里,24.381968,124.191533,1854.533498740895,,True
新潟大学　農学部　附属フィールド科学教育研究センター　森林生態部佐渡ステーション,新潟県,佐渡市,小田,38.230899,138.386555,1915.372649043494,,True
愛媛県農林水産研究所　水産研究センター　魚類検査室,愛媛県,宇和島市,下波,33.169218,132.439487,1988.6352255593497,,False
愛媛県農林水産研究所　水産研究センター　栽培資源研究所,愛媛県,宇和島市,下波,33.169205,132.439471,1992.1333455657202,,False
愛媛県農林水産研究所　水産研究センター,愛媛県,宇和島市,下波,33.169196,132.439488,1999.8921469001393,,False
沖縄県海洋深層水研究所,沖縄県,久米島町,字真謝,26.357891,126.811793,2009.3749210451545,,True
島根県水産技術センター　総合調整部　栽培漁業グループ,島根県,西ノ島町,大字浦郷,36.07931,132.977442,2009.8424452008103,,True
高知県商工労働部　海洋深層水研究所,高知県,室戸市,室戸岬町,33.297557,134.188105,2092.174763230525,4934715531,False
鹿児島大学　農学部　附属演習林　佐多演習林,鹿児島県,南大隅町,佐多伊座敷,31.083832,130.708549,2185.53538561369,4630550621,False
東京農業大学　生物産業学部,北海道,網走市,字呼人,43.968519,144.233634,2213.2841623318445,,False
東京農業大学　大学院　生物産業学研究科,北海道,網走市,字呼人,43.968519,144.233634,2213.2841623318445,,False
鹿児島県農業開発総合センター　熊毛支場,鹿児島県,西之表市,西之表,30.731249,131.026636,2213.284800827714,,True
和歌山県農林水産部　畜産試験場,和歌山県,すさみ町,和深川,33.521451,135.549744,2265.2736383808387,,False
地方独立行政法人青森県産業技術センター　水産部門　水産総合研究所,青森県,平内町,大字茂浦字茂浦,40.947151,140.860498,2279.0197695946495,,False
青森県水産総合研究センター　増養殖研究所,青森県,平内町,大字茂浦字茂浦,40.947151,140.860498,2279.0197695946495,,False
東京大学　地震研究所　観測開発基盤センター　霧島火山観測所,宮崎県,えびの市,大字末永えびの高原東,31.945826,130.84092,2342.6801953013983,4730763732,False
石川県農林水産部　農林総合研究センター　林業試験場　能登駐在所,石川県,能登町,字武連,37.262932,137.03151,2371.889727071668,,False
東京都島しょ農林水産総合センター　三宅事業所,東京都,三宅村,坪田,34.071982,139.558294,2379.710127176403,,True
宮城県水産技術総合センター　養殖生産部種苗生産担当,宮城県,石巻市,大谷川浜,38.367132,141.486114,2475.4186449487806,,False
大分県農林水産研究指導センター　畜産研究部,大分県,竹田市,久住町大字久住,33.058169,131.267395,2524.4210352397695,,False
福島県環境医学研究所,福島県,大熊町,大字下野上字大野,37.406881,140.980328,2565.9912269904767,,False
福島県原子力センター,福島県,大熊町,大字下野上字大野,37.406881,140.980328,2565.9912269904767,,False
地方独立行政法人北海道立総合研究機構　農業研究本部　畜産試験場,北海道,新得町,西四条南六丁目,43.068731,142.805853,2579.5833515009735,,False
山口県農林総合技術センター　畜産技術部,山口県,美祢市,伊佐町河原,34.192148,131.26381,2906.202961319311,5131223111,False
山口県農林総合技術センター　畜産技術部　畜産試験場,山口県,美祢市,伊佐町河原,34.192148,131.26381,2906.202961319311,5131223111,False
岩手県農業研究センター　県北農業研究所,岩手県,軽米町,大字山内,40.307298,141.398401,3019.2189699983246,,False
琉球大学　熱帯生物圏研究センター　瀬底研究施設,沖縄県,本部町,字瀬底,26.637224,127.865613,3090.65734390612,,False
島根県中山間地域研究センター,島根県,飯南町,上来島,35.020912,132.729928,3102.790529706376,,False
独立行政法人宇宙航空研究開発機構　能代多目的実験場,秋田県,能代市,浅内字中谷地,40.169914,139.990909,3107.8039134854453,,False
高知県農業振興部　農業技術センター　山間試験室,高知県,大豊町,高須,33.759261,133.669138,3175.5311216926284,,False
岩手大学　農学部　附属寒冷フィールドサイエンス教育研究センター　中山間フィールドステーション　御明神牧場　御明神演習林,岩手県,雫石町,御明神一本木平,39.666904,140.931705,3197.525454609723,,False
財団法人熱帯海洋生態研究振興財団　阿嘉島臨海研究所,沖縄県,座間味村,字阿嘉,26.191736,127.281076,3218.836304433027,3927223212,True
宮崎県総合農業試験場　亜熱帯作物支場,宮崎県,日南市,夫婦浦,31.497455,131.378801,3253.3635882836397,4731139032,False
鹿児島県農業開発総合センター　徳之島支場,鹿児島県,伊仙町,大字目手久,27.678329,128.974642,3258.327657569465,4128471724,True
京都府農林水産技術センター　畜産センター　碇高原牧場,京都府,京丹後市,上宇川碇,35.719092,135.192799,3312.7872782044774,,False
地方独立行政法人北海道立総合研究機構　農業研究本部　花・野菜技術センター,北海道,滝川市,東滝川,43.585474,141.985756,3333.572919528638,,False
東北大学　大学院　生命科学研究科　附属浅虫海洋生物学教育研究センター,青森県,青森市,大字浅虫字蛍谷,40.903158,140.855514,3428.5310550771187,,False
沖縄県農業研究センター　宮古島支所,沖縄県,宮古島市,城辺字下里添,24.771607,125.33173,3429.5160721761795,,True
沖縄県畜産研究センター,沖縄県,今帰仁村,字兼次,26.686744,127.939969,3472.4733412928204,,False
熊本県農業研究センター　草地畜産研究所,熊本県,阿蘇市,西湯浦,33.002595,131.007359,3594.1012978231747,,False
東北大学　大学院　農学研究科　附属複合生態フィールド教育研究センター,宮城県,大崎市,鳴子温泉字久田,38.7449,140.756132,3613.348204609341,,False
秋田県農林水産部　農林水産技術センター　果樹試験場　かづの果樹センター,秋田県,鹿角市,十和田錦木,40.252379,140.815879,3617.347597696143,6040360514,False
岡山県農林水産総合センター　農業研究所　高冷地研究室,岡山県,真庭市,蒜山東茅部字茅部野東,35.267009,133.680143,3626.0390154549445,5233752412,False
鹿児島県農業開発総合センター　花き部,鹿児島県,指宿市,山川岡児ヶ水,31.170379,130.581573,3701.3712515767684,,False
新潟大学　理学部　附属臨海実験所,新潟県,佐渡市,達者達者,38.074633,138.246181,3734.4541595885776,,True
高知県農業振興部　農業技術センター　茶業試験場,高知県,仁淀川町,大渡,33.539463,133.124063,3756.0188176210727,,False
鹿児島大学　農学部　附属農場　入来牧場,鹿児島県,薩摩川内市,入来町浦之名,31.75262,130.4392,3776.610453560417,,False
東京大学　宇宙線研究所　附属乗鞍観測所,岐阜県,高山市,丹生川町岩井谷,36.108006,137.550244,3868.829037600739,,False
専修大学北海道短期大学,北海道,美唄市,光珠内町上中の沢,43.291492,141.86195,3895.110794172816,6441764844,False
鹿児島大学　農学部　附属演習林　高隈演習林,鹿児島県,垂水市,市木,31.52013,130.77668,3908.631792298729,4730262213,False
岩手県内水面水産技術センター,岩手県,八幡平市,柏台二丁目,39.910493,140.985746,3959.9316348112875,5940679824,False
宮崎県林業技術センター,宮崎県,美郷町,西郷田代,32.436482,131.430817,3984.9400821866193,4831532414,False
京都大学　フィールド科学教育研究センター　紀伊大島実験所,和歌山県,串本町,須江,33.46494,135.832919,4020.760152053847,,False
愛媛大学　農学部　附属演習林,愛媛県,松山市,米野町,33.922012,132.888323,4028.5074461905383,,False
福島県農林水産部　農業総合センター　畜産研究所　沼尻分場,福島県,郡山市,熱海町石筵字西大楢,37.603718,140.240376,4041.523888547801,,False
岡山県農林水産総合センター　畜産研究所,岡山県,美咲町,中松田，籏,35.0398,133.835658,4084.0806523727656,,False
地方独立行政法人北海道立総合研究機構　農業研究本部　上川農業試験場　天北支場,北海道,浜頓別町,緑ヶ丘八丁目,45.112512,142.361578,4084.3467903047654,6742523842,False
沖縄県水産海洋研究センター　石垣支所,沖縄県,石垣市,字川平,24.464319,124.142761,4095.9771011618623,3624515132,True
北海道大学　北方生物圏フィールド科学センター　水圏ステーション　忍路臨海実験所,北海道,小樽市,蘭島一丁目,43.20918,140.858438,4114.534712713027,6440665821,False
東京大学　宇宙線研究所　附属神岡宇宙素粒子研究施設,岐阜県,飛騨市,神岡町西茂住,36.434732,137.276208,4119.209702465521,5437522211,False
京都大学　大学院　理学研究科　附属天文台　飛騨天文台,岐阜県,高山市,上宝町蔵柱,36.254102,137.304969,4125.530842785881,,False
地方独立行政法人北海道立総合研究機構　森林研究本部,北海道,美唄市,光珠内町北,43.289889,141.853788,4127.96412125004,6441764834,False
地方独立行政法人北海道立総合研究機構　森林研究本部　林業試験場,北海道,美唄市,光珠内町北,43.289889,141.853788,4127.96412125004,6441764834,False
宮城県水産技術総合センター　内水面水産試験場,宮城県,色麻町,小栗山,38.460209,140.682138,4207.588753072219,,False
愛媛大学　南予水産研究センター,愛媛県,愛南町,船越,32.945986,132.503829,4250.993751245665,4932343032,False
公益財団法人立山カルデラ砂防博物館,富山県,富山市,本宮粟巣野,36.58232,137.445819,4283.733482439264,5437639543,False
広島県立総合技術研究所　畜産技術センター,広島県,庄原市,七塚町,34.822708,132.979116,4320.916676136556,,False
山口県農林総合技術センター　農業技術部　農業試験場　柑きつ振興センター,山口県,周防大島町,大字東安下庄,33.893921,132.291724,4322.167654733319,5032627314,False
香川県森林センター,香川県,まんのう町,新目,34.126373,133.832858,4385.428966629868,,False
大分県農林水産研究指導センター　水産研究部　浅海・内水面グループ　浅海チーム,大分県,豊後高田市,呉崎,33.593303,131.428729,4557.5965134157195,,False
宮城県水産技術総合センター　気仙沼水産試験場,宮城県,気仙沼市,波路上崎野,38.830013,141.597848,4607.556717832862,,False
東京大学　大学院　理学系研究科　附属天文学教育研究センター　木曽観測所,長野県,王滝村,鞍馬,35.796378,137.623441,4608.827733360638,,False
県立広島大学,広島県,庄原市,七塚町,34.824979,132.976391,4624.4858813796345,,False
岐阜大学　応用生物科学部　附属岐阜フィールド科学教育研究センター　位山演習林,岐阜県,下呂市,山之口,35.987452,137.195549,4636.625214103069,,False
佐賀県農林水産商工本部　玄海水産振興センター　種苗開発室,佐賀県,唐津市,鎮西町波戸,33.543612,129.850817,4717.414634903648,,False
石川県農林水産部　農林総合研究センター　畜産試験場　能登畜産センター,石川県,能登町,字松波第一元組,37.347746,137.242001,4739.079199372105,5637011932,False
岩手県水産技術センター,岩手県,釜石市,平田町一丁目,39.250679,141.89436,4795.2652036796835,,False
福井県農林水産部　水産試験場,福井県,敦賀市,浦底,35.74304,136.024244,4813.574881585746,,False
兵庫県立農林水産技術総合センター　水産技術センター　内水面漁業センター,兵庫県,朝来市,田路,35.220328,134.738299,4893.679144818347,5234656913,False
地方独立行政法人青森県産業技術センター　農林部門　畜産研究所　和牛改良技術部,青森県,つがる市,森田町森田,40.766794,140.340854,4932.454819754708,,False
愛媛県農林水産研究所　林業研究センター,愛媛県,久万高原町,上野尻,33.645206,132.91292,4941.764959393251,,False
大分県農林水産研究指導センター　農業研究部　果樹グループ,大分県,国東市,綱井,33.540894,131.730106,4979.129287370282,,False
大分県農林水産研究指導センター　水産研究部,大分県,佐伯市,大字津井浦,33.051744,131.934993,5002.862949464062,,False
香川高等専門学校　通信ネットワーク工学科,香川県,三豊市,詫間町香田,34.235253,133.634792,5096.196054491052,5133258022,False
香川高等専門学校　電子システム工学科,香川県,三豊市,詫間町香田,34.235253,133.634792,5096.196054491052,5133258022,False
香川高等専門学校　情報工学科,香川県,三豊市,詫間町香田,34.235253,133.634792,5096.196054491052,5133258022,False
香川高等専門学校　専攻科　電子情報通信工学専攻,香川県,三豊市,詫間町香田,34.235253,133.634792,5096.196054491052,5133258022,False
三重県農業研究所　紀南果樹研究室,三重県,御浜町,大字志原,33.855003,136.038573,5097.558303377855,,False
鹿児島県農業開発総合センター,鹿児島県,南さつま市,大野,31.482222,130.342643,5106.531749149846,,False
鹿児島県農業開発総合センター　農産物加工研究指導センター,鹿児島県,南さつま市,大野,31.482222,130.342643,5106.531749149846,,False
和歌山県農林水産部　果樹試験場　うめ研究所,和歌山県,みなべ町,東本庄,33.819196,135.352185,5125.236667443636,5035528813,False
京都大学　大学院　理学研究科　附属地球熱学研究施設　火山研究センター,熊本県,南阿蘇村,大字河陽,32.885462,131.006543,5125.4375361053035,,False
地方独立行政法人北海道立総合研究機構　農業研究本部　上川農業試験場,北海道,比布町,新町二丁目,43.859225,142.481554,5164.083615936973,,False
鹿児島県農業開発総合センター　畜産試験場,鹿児島県,霧島市,国分上之段,31.678575,130.851957,5254.684643252936,,False
新潟県水産海洋研究所　佐渡水産技術センター,新潟県,佐渡市,真野大川,37.954498,138.332399,5260.112571585193,5638724641,True
国際教養大学,秋田県,秋田市,河辺戸島字大堤山,39.627186,140.198191,5270.497259325133,,False
東海大学　総合農学研究所,熊本県,南阿蘇村,大字下野,32.891346,130.995246,5333.675150934696,,False
東海大学　農学部,熊本県,南阿蘇村,大字下野,32.891346,130.995246,5333.675150934696,,False
東海大学　大学院　農学研究科,熊本県,南阿蘇村,大字下野,32.891346,130.995246,5333.675150934696,,False
東海大学　阿蘇教養教育センター,熊本県,南阿蘇村,大字下野,32.891346,130.995246,5333.675150934696,,False
地方独立行政法人北海道立総合研究機構　農業研究本部　十勝農業試験場,北海道,芽室町,新生,42.891662,143.077422,5340.782378682786,,False
高知県水産振興部　水産試験場,高知県,土佐市,宇佐町福島,33.440278,133.424758,5364.6364830564835,5033132344,False
山形県農業総合研究センター　養豚試験場,山形県,鶴岡市,下川字七窪,38.804285,139.775641,5365.998501803023,,False
信州大学　教育学部　附属志賀自然教育研究施設,長野県,山ノ内町,大字平穏,36.710908,138.494653,5369.118938668344,,False
石川県農林水産部　水産総合センター　内水面水産センター,石川県,加賀市,山中温泉荒谷町,36.253918,136.422139,5466.953134963281,5436330324,False
北海道大学　北方生物圏フィールド科学センター　森林圏ステーション　北管理部,北海道,名寄市,徳田区,44.328852,142.451427,5467.374517015376,,False
新潟県農業総合研究所　高冷地農業技術センター,新潟県,津南町,中深見乙豊郷,36.998431,138.683976,5468.650291663911,5538359443,False
千歳科学技術大学,北海道,千歳市,美々,42.793487,141.695934,5542.657816388247,,False
千歳科学技術大学　総合光科学部,北海道,千歳市,美々,42.793487,141.695934,5542.657816388247,,False
千歳科学技術大学　大学院　光科学研究科,北海道,千歳市,美々,42.793487,141.695934,5542.657816388247,,False
京都府農林水産技術センター　海洋センター,京都府,宮津市,栗田小田宿野,35.557317,135.253664,5552.668679208668,,False
鳥取県農林水産部　農林総合研究所,鳥取県,北栄町,由良宿別所,35.476986,133.743784,5603.945576572983,5333157921,False
鳥取県農林水産部　農林総合研究所　園芸試験場,鳥取県,北栄町,由良宿別所,35.476986,133.743784,5603.945576572983,5333157921,False
東北大学　大学院　農学研究科　附属複合生態フィールド教育研究センター,宮城県,女川町,小乗二丁目,38.438002,141.455283,5617.039018722643,5741532632,False
大分県農林水産研究指導センター　水産研究部　浅海・内水面グループ　内水面チーム,大分県,宇佐市,安心院町荘,33.431423,131.370862,5626.248547685598,5031121943,False
東京大学　大気海洋研究所　附属国際沿岸海洋研究センター,岩手県,大槌町,赤浜三丁目,39.351566,141.934497,5716.612115004868,5941072422,False
岐阜県農政部　畜産研究所,岐阜県,高山市,八日町,36.140097,137.16348,5733.936668904083,,False
岐阜県農政部　畜産研究所　飛騨牛研究部,岐阜県,高山市,八日町,36.140097,137.16348,5733.936668904083,,False
独立行政法人農業・食品産業技術総合研究機構　近畿中国四国農業研究センター　大田研究拠点,島根県,大田市,川合町吉永,35.168695,132.501035,5760.095758059595,5232640011,False
熊本県水産研究センター,熊本県,上天草市,中,32.572422,130.415723,5764.055709297531,,False
鹿児島県農業開発総合センター　茶業部　大隅分場,鹿児島県,志布志市,志布志町安楽,31.498593,131.064324,5770.766994727815,4731109533,False
信州大学　農学部　附属アルプス圏フィールド科学教育研究センター　西駒ステーション,長野県,伊那市,伊那,35.827835,137.861252,5770.793167578676,,False
長崎県農林技術開発センター　馬鈴薯研究室,長崎県,東彼杵町,中尾郷,33.045685,129.976925,5788.13937740371,,False
長崎県農林技術開発センター　茶業研究室,長崎県,東彼杵町,中尾郷,33.045685,129.976925,5788.13937740371,,False
地方独立行政法人青森県産業技術センター　工業部門　工業総合研究所,青森県,青森市,大字合子沢字松森,40.743928,140.75595,5815.846709438636,,False
秋田県立大学　生物資源科学部　附属フィールド教育研究センター,秋田県,大潟村,字南二丁目,40.006353,139.954644,5851.440889761483,,False
独立行政法人医薬基盤研究所　薬用植物資源研究センター　種子島研究部,鹿児島県,中種子町,野間,30.541232,130.954796,5856.3659387518155,,True
東京大学　医科学研究所　附属奄美病害動物研究施設,鹿児島県,中種子町,野間,30.541232,130.954796,5856.3659387518155,,True
熊本大学　沿岸域環境科学教育研究センター　合津マリンステーション,熊本県,上天草市,合津,32.523373,130.424408,5875.05663642049,4830632344,False
地方独立行政法人北海道立総合研究機構　農業研究本部,北海道,長沼町,一区,43.054684,141.755383,5878.407691904953,6441466032,False
地方独立行政法人北海道立総合研究機構　農業研究本部　中央農業試験場,北海道,長沼町,一区,43.054684,141.755383,5878.407691904953,6441466032,False
北海道病害虫防除所,北海道,長沼町,一区,43.054684,141.755383,5878.407691904953,6441466032,False
地方独立行政法人青森県産業技術センター　農林部門　林業研究所,青森県,平内町,大字沼館字家岸,40.924263,140.974132,5915.889157425494,6140370744,False
東京都島しょ農林水産総合センター　八丈事業所,東京都,八丈町,三根,33.130739,139.802522,5944.312690749148,4939565431,True
京都大学　フィールド科学教育研究センター　北海道研究林白糠区,北海道,白糠町,白糠西二条北八丁目,42.966472,144.065564,5969.4814627011265,6444305533,False
高知県農業振興部　畜産試験場,高知県,佐川町,中組角口,33.468204,133.28175,6018.075492534246,5033126221,False
新潟県森林研究所,新潟県,村上市,鵜渡路,38.272828,139.508683,6045.494393170075,5739342041,False
九州大学　理学部　附属天草臨海実験所,熊本県,苓北町,富岡,32.528335,130.033686,6059.968913010277,4830603223,False
長崎大学　九州地区国立大学島原共同研修センター,長崎県,島原市,礫石原町,32.793624,130.306946,6070.944043659588,,False
日本大学　生物資源科学部　下田臨海実験所,静岡県,下田市,須崎,34.66049,138.982231,6132.832530818458,,False
和歌山県農林水産部　畜産試験場　養鶏研究所,和歌山県,日高川町,大字船津,33.946199,135.265065,6230.586690661327,5035723131,False
佐賀県農林水産商工本部　上場営農センター,佐賀県,唐津市,鎮西町加倉,33.499143,129.900503,6263.357522267631,,False
愛媛県農林水産研究所　果樹研究センター　みかん研究所,愛媛県,宇和島市,吉田町法花津,33.319327,132.521129,6286.643479671058,4932748123,False
愛媛県農林水産研究所　畜産研究センター　養鶏研究所,愛媛県,西条市,福成寺,33.953259,133.033114,6306.613913049743,,False
群馬県農業技術センター　高冷地野菜研究センター,群馬県,嬬恋村,大字大笹,36.511831,138.470858,6316.457523134406,,False
和歌山県農林水産部　水産試験場,和歌山県,串本町,串本,33.461391,135.785275,6324.174381392702,5035165224,False
香川県農業試験場　満濃試験地,香川県,まんのう町,炭所西,34.170451,133.894482,6329.040836466159,5133270123,False
広島商船高等専門学校,広島県,大崎上島町,東野,34.253409,132.904273,6332.71484461585,,True
広島商船高等専門学校　商船学科,広島県,大崎上島町,東野,34.253409,132.904273,6332.71484461585,,True
広島商船高等専門学校　電子制御工学科,広島県,大崎上島町,東野,34.253409,132.904273,6332.71484461585,,True
広島商船高等専門学校　流通情報工学科,広島県,大崎上島町,東野,34.253409,132.904273,6332.71484461585,,True
広島商船高等専門学校　専攻科,広島県,大崎上島町,東野,34.253409,132.904273,6332.71484461585,,True
広島商船高等専門学校　図書館,広島県,大崎上島町,東野,34.253409,132.904273,6332.71484461585,,True
広島商船高等専門学校　メディアセンター,広島県,大崎上島町,東野,34.253409,132.904273,6332.71484461585,,True
広島商船高等専門学校　練習船広島丸,広島県,大崎上島町,東野,34.253409,132.904273,6332.71484461585,,True
広島商船高等専門学校　地域交流センター,広島県,大崎上島町,東野,34.253409,132.904273,6332.71484461585,,True
独立行政法人理化学研究所　播磨研究所,兵庫県,佐用町,光都,34.947474,134.427959,6339.786605095088,,False
公益財団法人高輝度光科学研究センター,兵庫県,佐用町,光都,34.947478,134.427959,6339.834670877182,,False
独立行政法人日本原子力研究開発機構　関西光科学研究所,兵庫県,佐用町,光都,34.947556,134.428031,6342.546146575478,,False
独立行政法人物質・材料研究機構　西播磨地区,兵庫県,佐用町,光都,34.947556,134.428031,6342.546146575478,,False
明治大学　研究・知財戦略機構　黒耀石研究センター,長野県,長和町,和田鍛冶足,36.149588,138.203359,6464.186082338918,5438117634,False
独立行政法人宇宙航空研究開発機構　臼田宇宙空間観測所,長野県,佐久穂町,大字上,36.13304,138.361936,6469.937532712361,,False
兵庫県立農林水産技術総合センター　森林林業技術センター　緑化センター,兵庫県,朝来市,山東町野間,35.333934,134.909424,6529.450127569084,,False
宮城県畜産試験場,宮城県,大崎市,岩出山下野目字泉川原,38.620303,140.879353,6554.238072088703,,False
北海道医療大学,北海道,当別町,字金沢,43.232044,141.548341,6559.858626750491,,False
北海道医療大学　薬学部,北海道,当別町,字金沢,43.232044,141.548341,6559.858626750491,,False
北海道医療大学　歯学部,北海道,当別町,字金沢,43.232044,141.548341,6559.858626750491,,False
北海道医療大学　看護福祉学部,北海道,当別町,字金沢,43.232044,141.548341,6559.858626750491,,False
北海道医療大学　大学院　薬学研究科,北海道,当別町,字金沢,43.232044,141.548341,6559.858626750491,,False
北海道医療大学　大学院　歯学研究科,北海道,当別町,字金沢,43.232044,141.548341,6559.858626750491,,False
北海道医療大学　大学院　看護福祉学研究科,北海道,当別町,字金沢,43.232044,141.548341,6559.858626750491,,False
北海道医療大学　個体差健康科学研究所,北海道,当別町,字金沢,43.232044,141.548341,6559.858626750491,,False
東京大学　地震研究所　観測開発基盤センター　浅間火山観測所,長野県,軽井沢町,大字長倉千ヶ滝中区,36.404532,138.568661,6618.510344970649,,False
島根県水産技術センター　内水面浅海部　浅海グループ,島根県,松江市,鹿島町恵曇,35.529563,132.970221,6693.263263288521,,False
三重大学　大学院　生物資源学研究科　附属紀伊・黒潮生命地域フィールドサイエンスセンター　附帯施設演習林,三重県,津市,美杉町川上,34.458309,136.237045,6695.172426635138,5136514844,False
新潟県農業総合研究所　畜産研究センター,新潟県,三条市,棚鱗,37.54576,139.066662,6734.393456057522,,False
石川県農林水産部　農林総合研究センター　畜産試験場,石川県,宝達志水町,紺屋町,36.787944,136.771066,6734.985812554809,,False
香川大学　研究推進機構　瀬戸内圏研究センター庵治マリンステーション,香川県,高松市,庵治町,34.38839,134.153616,6740.206079072644,5134416232,False
福島県農林水産部　農業総合センター　畜産研究所,福島県,福島市,荒井,37.7031,140.354556,6792.318554922712,,False
高千穂大学,群馬県,嬬恋村,大字今井,36.578713,138.567313,6817.114175008255,5438649514,False
熊本県農業研究センター　農産園芸研究所　作物研究室矢部試験地,熊本県,山都町,上寺,32.69487,130.978826,6965.633756963305,4930073814,False
東京工業大学　火山流体研究センター　草津白根火山観測所,群馬県,中之条町,大字小雨,36.619816,138.622199,6976.254861224085,5438744924,False
名古屋大学　大学院　理学研究科　附属臨海実験所,三重県,鳥羽市,菅島町,34.485569,136.875719,7007.870079301408,,True
山口県水産研究センター　外海研究部,山口県,長門市,仙崎,34.39997,131.193874,7038.275199280727,5131418521,False
筑波大学　菅平高原実験センター,長野県,上田市,菅平高原,36.523881,138.347459,7064.913828236632,,False
鹿児島県農業開発総合センター　果樹部,鹿児島県,垂水市,本城,31.477221,130.721962,7091.482472319981,4730157724,False
鹿児島県森林技術総合センター　龍郷町駐在,鹿児島県,龍郷町,浦,28.399857,129.586658,7108.595272254796,4229447644,True
京都府農林水産技術センター　農林センター　丹後特産部　丹後農業研究所,京都府,京丹後市,弥栄溝谷,35.674069,135.096361,7157.192416115312,5335400743,False
福井県農林水産部　栽培漁業センター,福井県,小浜市,堅海,35.537862,135.719174,7186.321822473924,5335254741,False
富良野市ぶどう果樹研究所,北海道,富良野市,北斗町（西）,43.358581,142.373688,7186.523363800275,,False
高知県林業振興・環境部　森林技術センター,高知県,香美市,佐岡仁井田,33.632098,133.712716,7188.464194250002,5033355733,False
岡山県農林水産総合センター　水産研究所,岡山県,瀬戸内市,牛窓町鹿忍,34.598415,134.129381,7222.956480178992,5134711034,False
独立行政法人海洋研究開発機構　国際海洋環境情報センター,沖縄県,名護市,字豊原,26.521866,128.019105,7236.706513206151,3928602141,False
信州大学　農学部　附属アルプス圏フィールド科学教育研究センター　手良沢山ステーション,長野県,伊那市,手良,35.892944,138.048706,7245.079403426075,,False
地方独立行政法人青森県産業技術センター　農林部門　りんご研究所　県南果樹部,青森県,五戸町,大字扇田字長下タ,40.503701,141.322693,7295.353261708476,,False
岩手県農業研究センター　畜産研究所,岩手県,滝沢市,巣子,39.81551,141.131368,7309.267655910862,,False
宮崎大学　農学部　附属フィールド科学教育研究センター　田野フィールド　演習林,宮崎県,宮崎市,乙三角寺（北分団）,31.855402,131.30399,7314.0510292332,,False
九州保健福祉大学,宮崎県,延岡市,吉野町,32.56839,131.613174,7366.668082294386,,False
九州保健福祉大学　社会福祉学部,宮崎県,延岡市,吉野町,32.56839,131.613174,7366.668082294386,,False
九州保健福祉大学　保健科学部,宮崎県,延岡市,吉野町,32.56839,131.613174,7366.668082294386,,False
九州保健福祉大学　薬学部,宮崎県,延岡市,吉野町,32.56839,131.613174,7366.668082294386,,False
兵庫県立農林水産技術総合センター　北部農業技術センター,兵庫県,朝来市,和田山町安井,35.311159,134.825803,7377.764851273698,,False
和歌山県農林水産部　農業試験場　暖地園芸センター,和歌山県,御坊市,塩屋町南塩屋,33.859672,135.170286,7392.445662551769,5035613321,False
茨城県農業総合センター　山間地帯特産指導所,茨城県,大子町,大字頃藤,36.714269,140.376074,7408.1022533706255,,False
金沢大学　環日本海域環境研究センター　臨海実験施設,石川県,能登町,字小木三矢第二,37.307376,137.231125,7466.302110303387,5537716834,False
長崎県農林技術開発センター　干拓営農研究部門,長崎県,諫早市,中央干拓,32.865789,130.110729,7482.8545550372155,4930203844,False
山口県水産研究センター　内海研究部,山口県,山口市,秋穂二島長浜,34.007549,131.410662,7498.794827635007,5131030244,False
北里大学　保健衛生専門学院,新潟県,南魚沼市,八色原,37.156486,138.954669,7516.733911207337,,False
群馬県畜産試験場　吾妻肉牛繁殖センター,群馬県,東吾妻町,大字厚田烏帽子,36.529881,138.806326,7518.38090209255,,False
山形県農業総合研究センター　畜産試験場,山形県,新庄市,大字鳥越,38.730238,140.301284,7524.252716276076,,False
弓削商船高等専門学校,愛媛県,上島町,弓削日比,34.252023,133.207051,7533.732431666209,5133310621,True
弓削商船高等専門学校　商船学科,愛媛県,上島町,弓削日比,34.252023,133.207051,7533.732431666209,5133310621,True
弓削商船高等専門学校　電子機械工学科,愛媛県,上島町,弓削日比,34.252023,133.207051,7533.732431666209,5133310621,True
弓削商船高等専門学校　情報工学科,愛媛県,上島町,弓削日比,34.252023,133.207051,7533.732431666209,5133310621,True
弓削商船高等専門学校　専攻科　海上輸送システム工学専攻,愛媛県,上島町,弓削日比,34.252023,133.207051,7533.732431666209,5133310621,True
弓削商船高等専門学校　専攻科　生産システム工学専攻,愛媛県,上島町,弓削日比,34.252023,133.207051,7533.732431666209,5133310621,True
弓削商船高等専門学校　総合教育科,愛媛県,上島町,弓削日比,34.252023,133.207051,7533.732431666209,5133310621,True
弓削商船高等専門学校　図書館,愛媛県,上島町,弓削日比,34.252023,133.207051,7533.732431666209,5133310621,True
弓削商船高等専門学校　情報処理教育センター,愛媛県,上島町,弓削日比,34.252023,133.207051,7533.732431666209,5133310621,True
弓削商船高等専門学校　地域共同研究推進センター,愛媛県,上島町,弓削日比,34.252023,133.207051,7533.732431666209,5133310621,True
弓削商船高等専門学校　練習船弓削丸,愛媛県,上島町,弓削日比,34.252023,133.207051,7533.732431666209,5133310621,True
八戸大学,青森県,八戸市,大字金浜字折場沢,40.484429,141.590744,7559.358224404798,6041548712,False
八戸大学　ビジネス学部,青森県,八戸市,大字金浜字折場沢,40.484429,141.590744,7559.358224404798,6041548712,False
八戸大学　総合研究所,青森県,八戸市,大字金浜字折場沢,40.484429,141.590744,7559.358224404798,6041548712,False
東京都島しょ農林水産総合センター　東京都栽培漁業センター,東京都,大島町,元町字神明,34.769066,139.352988,7579.571155225617,5239122813,True
近畿大学　農学部　附属農場,和歌山県,紀美野町,上ケ井,34.113022,135.361528,7601.338305323619,,False
福島県農林水産部　内水面水産試験場,福島県,猪苗代町,大字磐根,37.561891,140.075103,7602.352660676507,,False
盛岡大学,岩手県,滝沢市,巣子,39.815154,141.13686,7609.873812205896,,False
盛岡大学　文学部,岩手県,滝沢市,巣子,39.815154,141.13686,7609.873812205896,,False
盛岡大学　比較文化研究センター,岩手県,滝沢市,巣子,39.815154,141.13686,7609.873812205896,,False
盛岡大学　短期大学部,岩手県,滝沢市,巣子,39.815154,141.13686,7609.873812205896,,False
盛岡大学　短期大学部　幼児教育科,岩手県,滝沢市,巣子,39.815154,141.13686,7609.873812205896,,False
盛岡大学　短期大学部　食物栄養科,岩手県,滝沢市,巣子,39.815154,141.13686,7609.873812205896,,False
宮崎県総合農業試験場　薬草・地域作物センター,宮崎県,小林市,三ケ野山小坂,31.963923,131.082215,7623.308889052059,4731705641,False
長野県環境保全研究所,長野県,長野市,北郷,36.725634,138.153579,7671.9515805572655,,False
京都大学　フィールド科学教育研究センター　芦生研究林,京都府,南丹市,知井芦生,35.308752,135.717237,7696.776706115325,5235757712,False
愛媛県農林水産研究所　畜産研究センター,愛媛県,西予市,野村町阿下,33.383983,132.652399,7720.342022120656,5032056211,False
南九州大学　園芸学部　附属農場,宮崎県,高鍋町,大字南高鍋雲雀山,32.112653,131.524011,7740.4219354008355,,False
南九州大学　環境造園学部　附属実習場,宮崎県,高鍋町,大字南高鍋雲雀山,32.112653,131.524011,7740.4219354008355,,False
南九州大学　情報処理センター,宮崎県,高鍋町,大字南高鍋雲雀山,32.112653,131.524011,7740.4219354008355,,False
南九州大学　教養・教職センター,宮崎県,高鍋町,大字南高鍋雲雀山,32.112653,131.524011,7740.4219354008355,,False
京都大学　フィールド科学教育研究センター　瀬戸臨海実験所,和歌山県,白浜町,,33.692901,135.338295,7747.006167787404,5035423711,False
大学共同利用機関法人自然科学研究機構　国立天文台　野辺山宇宙電波観測所,長野県,南牧村,大字野辺山,35.940843,138.470379,7752.903943493853,,False
大学共同利用機関法人自然科学研究機構　国立天文台　野辺山太陽電波観測所,長野県,南牧村,大字野辺山,35.940843,138.470379,7752.903943493853,,False
宮崎県総合農業試験場　茶業支場,宮崎県,高鍋町,大字持田鬼ヶ久保,32.159792,131.510423,7768.789540731124,,False
岡山県農林水産総合センター　森林研究所,岡山県,勝央町,植月中大沢の一部，大砂，下村,35.060045,134.112215,7774.101060838875,,False
鹿児島県農業開発総合センター　大隅支場,鹿児島県,鹿屋市,細山田,31.441653,130.919382,7781.074404399946,4730173321,False
鹿児島県農業開発総合センター　バイオテクノロジー研究所,鹿児島県,鹿屋市,細山田,31.441653,130.919382,7781.074404399946,4730173321,False
青森県水産総合研究センター,青森県,鰺ヶ沢町,大字南浮田町,40.783174,140.238172,7792.288419481052,,False
鹿児島県農業開発総合センター　茶業部,鹿児島県,南九州市,郡,31.365895,130.447387,7810.502729640348,,False
広島大学　大学院　生物圏科学研究科　附属瀬戸内圏フィールド科学教育研究センター　竹原ステーション,広島県,竹原市,港町五丁目,34.326036,132.922934,7869.501037033614,5132379322,False
名古屋大学　大学院　生命農学研究科　附属フィールド科学教育研究センター　稲武フィールド　附属演習林,愛知県,豊田市,武節町,35.209209,137.509957,7941.277169389793,,False
名古屋大学　大学院　生命農学研究科　附属フィールド科学教育研究センター　設楽フィールド　附属山地畜産実験実習施設,愛知県,設楽町,東納庫,35.152297,137.538469,7970.781067542256,5237548313,False
環境省　国立水俣病総合研究センター,熊本県,水俣市,浜,32.230038,130.403878,8042.756654544671,,False
徳島県立農林水産総合技術支援センター　果樹研究所,徳島県,勝浦町,大字中角,33.939693,134.542991,8049.115875120188,5034742334,False
青森公立大学,青森県,青森市,大字合子沢字山崎,40.752957,140.772031,8062.248615936299,,False
青森公立大学　経営経済学部,青森県,青森市,大字合子沢字山崎,40.752957,140.772031,8062.248615936299,,False
青森公立大学　大学院　経営経済学研究科,青森県,青森市,大字合子沢字山崎,40.752957,140.772031,8062.248615936299,,False
鳥取県農林水産部　栽培漁業センター,鳥取県,湯梨浜町,泊泊三区,35.517836,133.948385,8063.80737328368,5333272522,False
鳥取県農林水産部　農林総合研究所　中小家畜試験場,鳥取県,琴浦町,出上東桜ケ丘,35.503985,133.641787,8138.941489992379,,False
鳥取県農林水産部　農林総合研究所　畜産試験場,鳥取県,琴浦町,出上東桜ケ丘,35.503985,133.641787,8138.941489992379,,False
独立行政法人医薬基盤研究所　薬用植物資源研究センター　北海道研究部,北海道,名寄市,大橋区十一丁目,44.371762,142.454848,8178.975705737608,6642434632,False
厚生労働省　国立医薬品食品衛生研究所　北海道薬用植物栽培試験場,北海道,名寄市,大橋区十一丁目,44.371762000000004,142.454848,8178.975705737608,6642434632,False
奈良県農林部　畜産技術センター　みつえ高原牧場,奈良県,御杖村,大字菅野西川,34.4989,136.156865,8184.478458982881,,False
北海道原子力環境センター,北海道,泊村,大字堀株村,43.031817,140.537215,8193.544449267218,6440443244,False
財団法人日本真珠研究所　志摩海洋研究所,三重県,志摩市,磯部町三ケ所,34.359247,136.865433,8200.471509464462,5136463911,False
福島県農業総合センター　会津地域研究所,福島県,会津坂下町,大字見明字南原,37.580654,139.803288,8277.209682488028,,False
北海道大学　北方生物圏フィールド科学センター　耕地圏ステーション　生物生産研究農場余市果樹園,北海道,仁木町,北町十二丁目,43.175858,140.778887,8296.756563935844,6440661212,False
岩手県林業技術センター,岩手県,矢巾町,大字煙山第三地割,39.620086,141.096379,8428.870159761129,,False
群馬県立ぐんま天文台,群馬県,高山村,大字中山,36.597123,138.973423,8477.123522416878,,False
東京海洋大学　水圏科学フィールド教育研究センター　陸水域生産フィールド　大泉ステーション,山梨県,北杜市,大泉町谷戸,35.885056,138.389619,8487.367674835803,,False
三重県水産研究所,三重県,志摩市,浜島町浜島,34.293632,136.764421,8523.305427866435,,False
宮崎大学　農学部　附属フィールド科学教育研究センター　延岡フィールド　水産実験所,宮崎県,延岡市,赤水町,32.515005,131.699482,8569.66889321031,4831651544,False
静岡県経済産業部　水産技術研究所　伊豆分場,静岡県,下田市,白浜,34.709416,138.978882,8583.217812566305,5238075812,False
大島商船高等専門学校,山口県,周防大島町,大字小松,33.938957,132.189404,8596.074136239735,5032712531,False
大島商船高等専門学校　商船学科,山口県,周防大島町,大字小松,33.938957,132.189404,8596.074136239735,5032712531,False
大島商船高等専門学校　電子機械工学科,山口県,周防大島町,大字小松,33.938957,132.189404,8596.074136239735,5032712531,False
大島商船高等専門学校　情報工学科,山口県,周防大島町,大字小松,33.938957,132.189404,8596.074136239735,5032712531,False
大島商船高等専門学校　専攻科　海洋交通システム学専攻,山口県,周防大島町,大字小松,33.938957,132.189404,8596.074136239735,5032712531,False
大島商船高等専門学校　専攻科　電子・情報システム工学専攻,山口県,周防大島町,大字小松,33.938957,132.189404,8596.074136239735,5032712531,False
大島商船高等専門学校　図書館,山口県,周防大島町,大字小松,33.938957,132.189404,8596.074136239735,5032712531,False
大島商船高等専門学校　情報教育センター,山口県,周防大島町,大字小松,33.938957,132.189404,8596.074136239735,5032712531,False
大島商船高等専門学校　練習船　大島丸,山口県,周防大島町,大字小松,33.938957,132.189404,8596.074136239735,5032712531,False
岐阜県農政部　畜産研究所　酪農研究部,岐阜県,恵那市,岩村町上平,35.393609,137.392951,8601.590620955007,,False
新潟県内水面水産試験場　魚沼支場,新潟県,魚沼市,岡新田,37.185724,138.937676,8612.947790664266,5538672513,False
国際大学,新潟県,南魚沼市,穴地,37.147664,138.947282,8636.436321063511,5538577542,False
国際大学　大学院　国際関係学研究科,新潟県,南魚沼市,穴地,37.147664,138.947282,8636.436321063511,5538577542,False
国際大学　大学院　国際経営学研究科,新潟県,南魚沼市,穴地,37.147664,138.947282,8636.436321063511,5538577542,False
国際大学　国際大学研究所,新潟県,南魚沼市,穴地,37.147664,138.947282,8636.436321063511,5538577542,False
国際大学　グローバル・コミュニケーション・センター,新潟県,南魚沼市,穴地,37.147664,138.947282,8636.436321063511,5538577542,False
独立行政法人農業・食品産業技術総合研究機構　畜産草地研究所,栃木県,那須塩原市,高阿津,36.920425,139.932147,8652.937731242899,,False
兵庫県立農林水産技術総合センター　但馬水産技術センター,兵庫県,香美町,香住区境,35.650261,134.640041,8675.551552269373,,False
兵庫県立農林水産技術総合センター　水産技術センター　但馬水産技術センター,兵庫県,香美町,香住区境,35.650261,134.640041,8675.551552269373,,False
岡山大学　理学部　附属牛窓臨海実験所,岡山県,瀬戸内市,牛窓町鹿忍,34.609116,134.141282,8727.15288510905,,False
福井県農林水産部　畜産試験場,福井県,坂井市,平山,36.241556,136.169129,8741.45307678375,,False
地方独立行政法人青森県産業技術センター　農林部門　畜産研究所,青森県,野辺地町,字切明,40.851005,141.106768,8745.53210699514,6141202821,False
大分県農林水産研究指導センター　農業研究部　水田農業グループ,大分県,宇佐市,大字和気,33.535882,131.386983,8798.700872972075,5031234024,False
千葉大学　環境健康フィールド科学センター　森林環境園芸農場,群馬県,沼田市,下川田町,36.607764,139.002322,8834.361057686729,5439702033,False
宮崎県畜産試験場,宮崎県,高原町,大字広原並木,31.924484,130.98692,8863.435003027045,4730770844,False
岡山県農林水産総合センター　生物科学研究所,岡山県,吉備中央町,吉川高原東住区,34.844315,133.758874,8926.584518465212,5233261023,False
岡山県農林水産総合センター　生物科学研究所　遺伝子工学研究部門,岡山県,吉備中央町,吉川高原東住区,34.844315,133.758874,8926.584518465212,5233261023,False
岡山県農林水産総合センター　生物科学研究所　細胞工学研究部門,岡山県,吉備中央町,吉川高原東住区,34.844315,133.758874,8926.584518465212,5233261023,False
岡山県農林水産総合センター　生物科学研究所　微生物工学研究部門,岡山県,吉備中央町,吉川高原東住区,34.844315,133.758874,8926.584518465212,5233261023,False
佐賀県農林水産商工本部　農業試験研究センター　白石分場,佐賀県,白石町,大字横手中南,33.152959,130.154329,8980.9213976262,4930518214,False
鹿児島県農業開発総合センター　肉用牛改良研究所,鹿児島県,曽於市,大隅町境木町,31.580016,131.009489,8997.68650313494,4731209042,False
島根大学　生物資源科学部　附属生物資源教育研究センター,島根県,松江市,福原町,35.515439,133.109707,9019.6968104722,5333201844,False
広島県立総合技術研究所　農業技術センター　果樹研究部,広島県,東広島市,三津,34.333355,132.817196,9021.772977328223,5132460512,False
宮崎県畜産試験場　川南支場,宮崎県,川南町,七地区,32.219491,131.545249,9021.814179893177,,False
広島大学　大学院　理学研究科　附属臨海実験所,広島県,尾道市,向島町立花,34.365416,133.215502,9034.498046286502,5133413733,False
栃木県水産試験場,栃木県,大田原市,矢倉,36.792593,140.129929,9039.246431676516,5540115012,False
秋田県立大学　木材高度加工研究所,秋田県,能代市,字鳳凰岱,40.188562,140.007083,9093.409663733284,,False
新潟産業大学,新潟県,柏崎市,大字軽井川,37.334547,138.593209,9114.475032195722,,False
新潟産業大学　経済学部,新潟県,柏崎市,大字軽井川,37.334547,138.593209,9114.475032195722,,False
新潟産業大学　産業システム学部,新潟県,柏崎市,大字軽井川,37.334547,138.593209,9114.475032195722,,False
新潟産業大学　大学院　経済学研究科,新潟県,柏崎市,大字軽井川,37.334547,138.593209,9114.475032195722,,False
新潟産業大学　附属図書館,新潟県,柏崎市,大字軽井川,37.334547,138.593209,9114.475032195722,,False
新潟産業大学　附属東アジア経済文化研究所,新潟県,柏崎市,大字軽井川,37.334547,138.593209,9114.475032195722,,False
地方独立行政法人北海道立総合研究機構　森林研究本部　林産試験場,北海道,旭川市,西神楽二線一〇号,43.699419,142.382274,9131.14645364217,6542433043,False
鳥取県農林水産部　農林総合研究所　林業試験場,鳥取県,鳥取市,河原町布袋,35.418031,134.208533,9207.220717653958,,False
静岡県経済産業部　畜産技術研究所,静岡県,富士宮市,原,35.348972,138.578312,9230.37260650536,,False
和歌山県農林水産部　果樹試験場,和歌山県,有田川町,大字吉見,34.037631,135.224226,9231.879858012955,,False
高知大学　総合研究センター　海洋部門　海洋生物研究教育施設,高知県,土佐市,宇佐町福島,33.438814,133.442945,9251.824326378384,5033132532,False
宮城県古川農業試験場,宮城県,大崎市,古川大崎字富国,38.596527,140.911953,9252.578491925644,5740771242,False
岡山大学　岡山大学病院　三朝医療センター,鳥取県,三朝町,横手横手,35.413331,133.881126,9264.12846241826,5333079032,False
岡山大学　地球物質科学研究センター,鳥取県,三朝町,横手横手,35.413331,133.881126,9264.12846241826,5333079032,False
長崎県農林技術開発センター　畜産研究部門,長崎県,島原市,有明町湯江乙,32.834581,130.305562,9327.522226317906,,False
鳥取県生活環境部　衛生環境研究所,鳥取県,湯梨浜町,南谷,35.493416,133.885171,9348.394964184583,,False
宇都宮大学　農学部　附属演習林,栃木県,塩谷町,大字芦場新田,36.773542,139.821299,9355.035281371478,5539162543,False
北海道大学　北方生物圏フィールド科学センター　森林圏ステーション　南管理部　苫小牧研究林,北海道,苫小牧市,字高丘東地区,42.676338,141.599725,9387.586815612154,6441041722,False
地方独立行政法人青森県産業技術センター　農林部門　野菜研究所,青森県,六戸町,小松ケ丘三丁目,40.649526,141.342511,9415.185790728056,,False
地方独立行政法人青森県産業技術センター　食品加工部門　農産物加工研究所,青森県,六戸町,小松ケ丘三丁目,40.649526,141.342511,9415.185790728056,,False
地方独立行政法人鳥取県産業技術センター　機械素材研究所　米子施設,鳥取県,米子市,日下,35.404858,133.423193,9466.255977057874,,False
富山県農林水産総合技術センター　森林研究所,富山県,立山町,岩峅寺,36.607066,137.330013,9470.523478901068,,False
日本獣医生命科学大学　付属牧場,山梨県,富士河口湖町,富士ケ嶺,35.414726,138.614488,9483.930150009832,,False
徳島県立農林水産総合技術支援センター　果樹研究所　県北分場,徳島県,板野町,羅漢,34.14122,134.423046,9524.613719484276,,False
岡山大学　農学部　附属山陽圏フィールド科学センター　津高牧場,岡山県,岡山市北区,日応寺,34.754624,133.860891,9537.705680032454,,False
兵庫県立大学　高度産業科学技術研究所,兵庫県,たつの市,新宮町光都三丁目,34.928518,134.445918,9539.366036273843,,False
兵庫県立大学　理学部,兵庫県,たつの市,新宮町光都三丁目,34.928518,134.445918,9539.366036273843,,False
兵庫県立大学　大学院　物質理学研究科,兵庫県,たつの市,新宮町光都三丁目,34.928518,134.445918,9539.366036273843,,False
兵庫県立大学　大学院　生命理学研究科,兵庫県,たつの市,新宮町光都三丁目,34.928518,134.445918,9539.366036273843,,False
栃木県農政部　畜産酪農研究センター,栃木県,那須塩原市,北赤田,36.922913,139.944238,9541.838026171554,,False
新潟県農業総合研究所　中山間地農業技術センター,新潟県,長岡市,川口武道窪,37.285215,138.850579,9542.293009761734,5538764811,False
独立行政法人農業・食品産業技術総合研究機構　畜産草地研究所,長野県,御代田町,大字塩野,36.350079,138.4966,9543.040443205158,,False
熊本県農業研究センター　茶業研究所,熊本県,御船町,大字滝尾下梅木,32.70208,130.829255,9574.937530441253,,False
地方独立行政法人青森県産業技術センター　農林部門　農林総合研究所　藤坂稲作部,青森県,十和田市,大字相坂,40.59501,141.249112,9593.176550402983,6041711924,False
愛媛県農林水産研究所,愛媛県,松山市,庄,33.978029,132.800754,9604.669710738573,,False
愛媛県農林水産研究所　農林水産研究所本所,愛媛県,松山市,庄,33.978029,132.800754,9604.669710738573,,False
愛媛県農林水産研究所　企画環境部,愛媛県,松山市,庄,33.978029,132.800754,9604.669710738573,,False
群馬県水産試験場　川場養魚センター,群馬県,川場村,大字天神,36.693003,139.08672,9620.332024969308,5539003622,False
新潟県農業総合研究所　佐渡農業技術センター,新潟県,佐渡市,中興町小路,38.014161,138.359912,9647.997242232437,,True
三重県水産研究所　尾鷲水産研究室,三重県,尾鷲市,大字天満浦,34.080495,136.211865,9674.72142091056,5136019642,False
東京大学　宇宙線研究所　附属明野観測所,山梨県,北杜市,明野町浅尾東光,35.786949,138.476248,9703.934825863373,5338534813,False
千葉大学　環境健康フィールド科学センター　海浜環境園芸農場,静岡県,東伊豆町,奈良本,34.829318,139.060306,9761.65837353738,,False
福井県農林水産部　園芸試験場,福井県,美浜町,矢筈,35.599449,135.916864,9783.992338523818,,False
島根県畜産技術センター,島根県,出雲市,馬木町,35.329061,132.755567,9811.00194137977,,False
大学共同利用機関法人自然科学研究機構　国立天文台　岡山天体物理観測所,岡山県,浅口市,益坂,34.576111,133.594687,9812.263344062558,,False
地方独立行政法人北海道立総合研究機構　農業研究本部　道南農業試験場,北海道,北斗市,本町,41.886532,140.653962,9853.284287762646,6240656214,False
山梨県農政部　総合農業技術センター　高冷地野菜・花き振興センター,山梨県,北杜市,明野町浅尾浅尾原,35.781577,138.463311,9914.615558801104,,False
山形県農業総合研究センター,山形県,山形市,大字村木沢出塩，大谷地,38.249004,140.244096,9924.596022809195,5740219943,False
栃木県水産試験場　片府田試験池,栃木県,大田原市,片府田,36.816938,140.055608,9961.170042872009,,False
八戸短期大学,青森県,八戸市,大字美保野,40.484564,141.586914,10031.749252380281,,False
八戸短期大学　幼児保育学科,青森県,八戸市,大字美保野,40.484564,141.586914,10031.749252380281,,False
八戸短期大学　ライフデザイン学科,青森県,八戸市,大字美保野,40.484564,141.586914,10031.749252380281,,False
信州大学　農学部　附属アルプス圏フィールド科学教育研究センター　野辺山ステーション,長野県,南牧村,大字野辺山,35.951191,138.473654,10088.099228112407,5338734722,False
福山大学　生命工学部　附属内海生物資源研究所,広島県,尾道市,因島大浜町,34.348846,133.175135,10142.561274395945,5133411433,False
鹿児島県水産技術開発センター,鹿児島県,指宿市,新西方,31.293601,130.605221,10148.792299254876,4630745812,False
地方独立行政法人北海道立総合研究機構　農業研究本部　根釧農業試験場,北海道,中標津町,桜ケ丘四丁目,43.538998,144.986933,10241.672294403485,,False
福井県産業労働部　工業技術センター　窯業指導分所,福井県,越前町,小曽原（一区）,35.934166,136.061043,10290.486796855786,5336702422,False
秋田県農林水産部　農林水産技術センター　果樹試験場,秋田県,横手市,十文字町梨木字御休ノ上,39.242734,140.531205,10344.607290106067,5840649212,False
大分県立歴史博物館,大分県,宇佐市,大字高森,33.542545,131.365316,10349.782864745419,,False
千葉大学　海洋バイオシステム研究センター,千葉県,鴨川市,小湊,35.120812,140.184269,10350.509040766805,,False
香川県農業試験場　園芸総合センター,香川県,高松市,香南町岡,34.223366,134.017536,10382.300915326983,,False
香川県農業試験場　園芸総合センター　原種生産担当,香川県,高松市,香南町岡,34.223366,134.017536,10382.300915326983,,False
香川県農業試験場　園芸総合センター　技術研修担当,香川県,高松市,香南町岡,34.223366,134.017536,10382.300915326983,,False
石川県農林水産部　農林総合研究センター　林業試験場,石川県,白山市,三宮町,36.43074,136.640814,10425.77054700882,,False
京都大学　フィールド科学教育研究センター　和歌山研究林　仮事務所,和歌山県,有田川町,大字清水,34.087391,135.432516,10449.617670776954,5135130423,False
石川県農林水産部　水産総合センター,石川県,能登町,字宇出津新港三丁目,37.297143,137.148953,10470.6826313858,,False
一般財団法人日本自動車研究所　城里テストセンター,茨城県,城里町,大字小坂,36.47762,140.329306,10482.950663463813,,False
東京海洋大学　水圏科学フィールド教育研究センター　東京湾臨海フィールド　館山ステーション　坂田,千葉県,館山市,坂田,34.975496,139.770211,10576.004364275088,5239367121,False
愛知県農業総合試験場　山間農業研究所,愛知県,豊田市,武節町,35.212283,137.507884,10609.336597172289,,False
兵庫県立農林水産技術総合センター　淡路農業技術センター,兵庫県,南あわじ市,八木入田,34.310283,134.795959,10633.072642375046,5134367321,False
千葉県農林水産部　畜産総合研究センター　嶺岡乳牛研究所,千葉県,南房総市,大井,35.104896,139.989181,10647.839072397865,,False
東京都島しょ農林水産総合センター　大島事業所,東京都,大島町,差木地字クダッチ,34.685708,139.43684,10657.663453521587,5239032424,True
地方独立行政法人青森県産業技術センター　工業部門　八戸地域研究所,青森県,八戸市,北インター工業団地一丁目,40.54784,141.435541,10673.339643894255,,False
新潟県内水面水産試験場,新潟県,長岡市,大川原町,37.366126,138.823683,10685.435775465114,,False
徳島県立農林水産総合技術支援センター　水産研究所　美波庁舎,徳島県,美波町,奥河内字井ノ上,33.732549,134.540505,10710.918706986737,5034447333,False
山梨県農政部　総合農業技術センター　高冷地分場八ヶ岳試験地,山梨県,北杜市,高根町東井出,35.871986,138.417407,10717.467977427317,5338634332,False
宮城県林業技術総合センター,宮城県,大衡村,大衡字北又,38.474471,140.877744,10782.956779876306,5740576033,False
身延山大学,山梨県,身延町,身延上町,35.381497,138.42765,10842.67282329535,,False
身延山大学　仏教学部,山梨県,身延町,身延上町,35.381497,138.42765,10842.67282329535,,False
身延山大学　東洋文化研究所,山梨県,身延町,身延上町,35.381497,138.42765,10842.67282329535,,False
東京大学　地震研究所　観測開発基盤センター　富士川地殻変動観測所,山梨県,南部町,福士天王,35.235104,138.468951,10886.775366802285,,False
岩手看護短期大学,岩手県,滝沢市,大釜高森,39.704199,141.048434,10929.886749965197,5941404324,False
岩手看護短期大学　看護学科,岩手県,滝沢市,大釜高森,39.704199,141.048434,10929.886749965197,5941404324,False
兵庫県立大学　自然・環境科学研究所,兵庫県,豊岡市,祥雲寺,35.551537,134.854515,10960.971239463319,,False
京都府農林水産技術センター　畜産センター,京都府,綾部市,豊里岡倉,35.324687,135.232579,10975.33337073005,5235718843,False
鹿屋体育大学　海洋スポーツセンター,鹿児島県,鹿屋市,白水町,31.394318,130.787489,10979.985986489326,4730067313,False
鹿屋体育大学,鹿児島県,鹿屋市,白水町,31.394318,130.787489,10979.985986489326,4730067313,False
鹿屋体育大学　体育学部,鹿児島県,鹿屋市,白水町,31.394318,130.787489,10979.985986489326,4730067313,False
鹿屋体育大学　大学院　体育学研究科,鹿児島県,鹿屋市,白水町,31.394318,130.787489,10979.985986489326,4730067313,False
鹿屋体育大学　外国語教育センター,鹿児島県,鹿屋市,白水町,31.394318,130.787489,10979.985986489326,4730067313,False
鹿屋体育大学　スポーツトレーニング教育研究センター,鹿児島県,鹿屋市,白水町,31.394318,130.787489,10979.985986489326,4730067313,False
鹿屋体育大学　保健管理センター,鹿児島県,鹿屋市,白水町,31.394318,130.787489,10979.985986489326,4730067313,False
鹿屋体育大学　スポーツ情報センター,鹿児島県,鹿屋市,白水町,31.394318,130.787489,10979.985986489326,4730067313,False
鹿屋体育大学　生涯スポーツ実践センター,鹿児島県,鹿屋市,白水町,31.394318,130.787489,10979.985986489326,4730067313,False
鹿屋体育大学　附属図書館,鹿児島県,鹿屋市,白水町,31.394318,130.787489,10979.985986489326,4730067313,False
鹿屋体育大学　アドミッションセンター,鹿児島県,鹿屋市,白水町,31.394318,130.787489,10979.985986489326,4730067313,False
宮崎県総合農業試験場　畑作園芸支場,宮崎県,都城市,横市町,31.753906,131.019499,11174.730583108489,,False
和歌山県農林水産部　林業試験場,和歌山県,上富田町,生馬,33.689531,135.435138,11242.475371036677,5035432442,False
独立行政法人日本原子力研究開発機構　大洗研究開発センター,茨城県,鉾田市,大字上釜,36.263362,140.551058,11268.02683940835,,False
東京理科大学　基礎工学部,北海道,長万部町,字長万部,42.508144,140.363618,11314.82859486711,6340620933,False
沖縄科学技術大学院大学,沖縄県,恩納村,字谷茶,26.463504,127.831078,11334.89978535357,3927565632,False
宮崎県工業技術センター,宮崎県,宮崎市,上田島,32.03692,131.421042,11337.611906865734,,False
宮崎県食品開発センター,宮崎県,宮崎市,上田島,32.03692,131.421042,11337.611906865734,,False
財団法人宮崎県産業支援財団,宮崎県,宮崎市,上田島,32.03692,131.421042,11337.611906865734,,False
長崎県総合水産試験場,長崎県,長崎市,見崎町,32.809987,129.771821,11359.696939875592,,False
東北大学　金属材料研究所　附属量子エネルギー材料科学国際研究センター,茨城県,大洗町,成田町,36.269704,140.547172,11370.89467793753,,False
長崎大学　大学院　水産・環境科学総合研究科　附属環東シナ海環境資源研究センター,長崎県,長崎市,見崎町,32.810677,129.772245,11393.666495155867,4929167124,False
長野県野菜花き試験場　佐久支場,長野県,小諸市,大字山浦御牧ケ原,36.300218,138.393587,11486.96439679391,,False
愛知県森林・林業技術センター,愛知県,新城市,上吉田,34.896482,137.599097,11563.045534691673,,False
秋田県農林水産部　農林水産技術センター　果樹試験場　天王分場,秋田県,潟上市,天王字鶴沼台,39.859015,140.017315,11644.767993683585,5940603112,False
島根県産業技術センター　浜田技術センター,島根県,浜田市,下府町,34.92392,132.118084,11667.842646222889,5232300934,False
千葉県農林水産部　農林総合研究センター　北総園芸研究所　東総野菜研究室,千葉県,旭市,塙,35.727142,140.71984,11682.920791597671,,False
千葉県農林水産部　水産総合研究センター,千葉県,南房総市,千倉町平磯,34.937048,139.957986,11685.917144802539,5239372623,False
熊本県農業研究センター　球磨農業研究所,熊本県,あさぎり町,免田東,32.226643,130.905843,11698.21071200019,4830277212,False
愛媛大学　農学部　附属農場,愛媛県,松山市,八反地,33.961969,132.791038,11705.31823228595,,False
広島県立総合技術研究所　水産海洋技術センター,広島県,呉市,音戸町波多見六丁目,34.172298,132.556555,11724.041069886774,,False
茨城大学　五浦美術文化研究所,茨城県,北茨城市,大津町字五浦三丁目,36.833904,140.802675,11807.194751928844,5540260411,False
香川県農業試験場　小豆オリーブ研究所,香川県,小豆島町,池田,34.483885,134.231133,11832.421096620214,5134518812,True
佐賀県農林水産商工本部　農業試験研究センター　三瀬分場,佐賀県,佐賀市,三瀬村大字三瀬字神有,33.427795,130.280599,11843.019831889062,5030121214,False
帝京学園短期大学,山梨県,北杜市,上笹尾,35.868601,138.322144,11858.503073443813,,False
福岡県農業総合試験場　八女分場,福岡県,八女市,黒木町本分,33.224934,130.647077,11879.584816912426,4930656144,False
三育学院短期大学,千葉県,大多喜町,石神,35.241773,140.263096,11898.319683942003,5240629111,False
三育学院短期大学　英語コミュニケーション学科,千葉県,大多喜町,石神,35.241773,140.263096,11898.319683942003,5240629111,False
三育学院短期大学　専攻科　地域看護学専攻,千葉県,大多喜町,石神,35.241773,140.263096,11898.319683942003,5240629111,False
三育学院大学,千葉県,大多喜町,石神,35.241755,140.263598,11898.319683942003,5240629111,False
京都大学　大学院　農学研究科　附属牧場,京都府,京丹波町,蒲生野,35.17772,135.420138,11940.670138035004,5235631323,False
福島県ハイテクプラザ,福島県,郡山市,待池台一丁目,37.445264,140.307484,11964.047045352081,,False
公益財団法人福島県産業振興センター　技術支援部,福島県,郡山市,待池台一丁目,37.445264,140.307484,11964.047045352081,,False
佐賀県農林水産商工本部　有明水産振興センター,佐賀県,小城市,芦刈町永田住の江,33.197795,130.207576,11971.495659848257,,False
静岡県経済産業部　水産技術研究所　富士養鱒場,静岡県,富士宮市,猪之頭,35.368908,138.565749,11987.641378189472,,False
富山国際大学　子ども育成学部,富山県,富山市,東黒牧上野,36.599784,137.274018,12124.06460176306,,False
兵庫県立農林水産技術総合センター　森林林業技術センター,兵庫県,宍粟市,五十波,35.038472,134.548316,12158.578279117439,,False
静岡県経済産業部　農林技術研究所　伊豆農業研究センター,静岡県,東伊豆町,稲取,34.781461,139.049518,12191.167312320871,5239103344,False
明治国際医療大学,京都府,南丹市,胡麻郷保野田（上保野田）,35.181622,135.491239,12214.286247809341,,False
香川県農業試験場,香川県,綾川町,北,34.232044,133.935466,12242.509277180363,5133277444,False
香川県農業試験場　病害虫防除所,香川県,綾川町,北,34.232044,133.935466,12242.509277180363,5133277444,False
香川県農業試験場　病害虫防除所　発生予察担当,香川県,綾川町,北,34.232044,133.935466,12242.509277180363,5133277444,False
香川県農業試験場　病害虫防除所　防除指導・農薬取締担当,香川県,綾川町,北,34.232044,133.935466,12242.509277180363,5133277444,False
山形県工業技術センター　置賜試験場,山形県,米沢市,窪田町窪田,37.963304,140.133613,12321.658622226852,,False
茨城県畜産センター　肉用牛研究所,茨城県,常陸大宮市,東野,36.571859,140.381782,12330.763386632336,,False
弘前大学　農学生命科学部　附属生物共生教育研究センター　金木農場,青森県,五所川原市,金木町朝日山,40.903028,140.464368,12342.261651653189,6140238713,False
一般財団法人日本生物科学研究所　実験動物部,山梨県,北杜市,上笹尾,35.866687,138.342021,12379.67963356586,5338624712,False
財団法人若狭湾エネルギー研究センター,福井県,敦賀市,長谷,35.602842,136.043276,12385.532844772628,,False
鹿児島大学　大学院　理工学研究科　附属南西島弧地震火山観測所,鹿児島県,鹿児島市,吉野町,31.660288,130.606125,12388.712501819844,,False
一般財団法人化学物質評価研究機構　日田研究所,大分県,日田市,大字石井,33.316427,130.899803,12413.121784114279,,False
高知工業高等専門学校,高知県,南国市,久枝,33.547175,133.680434,12429.602140201403,5033255432,False
高知工業高等専門学校　総合科学科,高知県,南国市,久枝,33.547175,133.680434,12429.602140201403,5033255432,False
高知工業高等専門学校　機械工学科,高知県,南国市,久枝,33.547175,133.680434,12429.602140201403,5033255432,False
高知工業高等専門学校　電気情報工学科,高知県,南国市,久枝,33.547175,133.680434,12429.602140201403,5033255432,False
高知工業高等専門学校　物質工学科,高知県,南国市,久枝,33.547175,133.680434,12429.602140201403,5033255432,False
高知工業高等専門学校　環境都市デザイン工学科,高知県,南国市,久枝,33.547175,133.680434,12429.602140201403,5033255432,False
高知工業高等専門学校　専攻科,高知県,南国市,久枝,33.547175,133.680434,12429.602140201403,5033255432,False
高知工業高等専門学校　図書館,高知県,南国市,久枝,33.547175,133.680434,12429.602140201403,5033255432,False
高知工業高等専門学校　情報処理センター,高知県,南国市,久枝,33.547175,133.680434,12429.602140201403,5033255432,False
高知工業高等専門学校　教育研究支援センター,高知県,南国市,久枝,33.547175,133.680434,12429.602140201403,5033255432,False
東京大学　地震研究所　観測開発基盤センター　伊豆大島火山観測所,東京都,大島町,元町字出払,34.754267,139.362601,12459.620125632413,,True
大分県農林水産研究指導センター,大分県,豊後大野市,三重町赤嶺,32.989993,131.5946,12466.813174445233,,False
大分県農林水産研究指導センター　農業研究部,大分県,豊後大野市,三重町赤嶺,32.989993,131.5946,12466.813174445233,,False
富山国際大学,富山県,富山市,東黒牧上野,36.600175,137.274866,12501.767291348975,,False
富山国際大学　現代社会学部,富山県,富山市,東黒牧上野,36.600175,137.274866,12501.767291348975,,False
富山国際大学　情報センター,富山県,富山市,東黒牧上野,36.600175,137.274866,12501.767291348975,,False
富山国際大学　現代社会学部地域研究交流センター,富山県,富山市,東黒牧上野,36.600175,137.274866,12501.767291348975,,False
富山国際大学　図書館,富山県,富山市,東黒牧上野,36.600175,137.274866,12501.767291348975,,False
富山国際大学　健康管理センター,富山県,富山市,東黒牧上野,36.600175,137.274866,12501.767291348975,,False
苫小牧駒澤大学,北海道,苫小牧市,錦西町三丁目,42.600471,141.467863,12504.37401627386,6341732712,False
苫小牧駒澤大学　国際文化学部,北海道,苫小牧市,錦西町三丁目,42.600471,141.467863,12504.37401627386,6341732712,False
旭川市工業技術センター,北海道,旭川市,工業団地三条二丁目,43.776656,142.461089,12642.205449354406,,False
山梨県森林環境部　環境科学研究所,山梨県,富士吉田市,松山,35.453054,138.76279,12749.587620528535,,False
群馬パース大学,群馬県,高山村,大字中山,36.599853,138.962134,12778.712414058284,5438771644,False
地方独立行政法人北海道立総合研究機構　水産研究本部　さけます・内水面水産試験場,北海道,恵庭市,柏木町,42.890056,141.539466,12823.221157888662,,False
北海道立水産孵化場,北海道,恵庭市,柏木町,42.890056,141.539466,12823.221157888662,,False
健康科学大学,山梨県,富士吉田市,松山,35.464093,138.743305,12833.293627744388,,False
地方独立行政法人北海道立総合研究機構　水産研究本部　網走水産試験場,北海道,網走市,つくしケ丘五丁目,43.988002,144.293955,12898.020198300474,6544728341,False
愛知県水産試験場　漁業生産研究所,愛知県,南知多町,大字師崎,34.701213,136.947871,12993.029649093163,5236074522,False
沖縄県農業研究センター　名護支所,沖縄県,名護市,字名護,26.61874,127.984381,12995.7151108856,,False
福島県農業総合センター　浜地域研究所,福島県,相馬市,成田字五郎右エ門橋,37.784111,140.926367,13079.962096179166,5640574411,False
岩手県農業研究センター,岩手県,花巻市,成田,39.353814,141.108897,13079.983450006768,,False
鳥取県農林水産部　水産試験場,鳥取県,境港市,竹内団地,35.526804,133.25063,13086.152985524732,,False
地方独立行政法人青森県産業技術センター,青森県,黒石市,大字北田中,40.667574,140.590334,13116.02164527333,,False
地方独立行政法人青森県産業技術センター　農林部門　農林総合研究所,青森県,黒石市,大字北田中,40.667574,140.590334,13116.02164527333,,False
地方独立行政法人青森県産業技術センター　農林部門　農林総合研究所　作物部,青森県,黒石市,大字北田中,40.667574,140.590334,13116.02164527333,,False
地方独立行政法人青森県産業技術センター　農林部門　農林総合研究所　水稲品種開発部,青森県,黒石市,大字北田中,40.667574,140.590334,13116.02164527333,,False
地方独立行政法人青森県産業技術センター　農林部門　農林総合研究所　生産環境部,青森県,黒石市,大字北田中,40.667574,140.590334,13116.02164527333,,False
地方独立行政法人青森県産業技術センター　農林部門　農林総合研究所　施設園芸部,青森県,黒石市,大字北田中,40.667574,140.590334,13116.02164527333,,False
地方独立行政法人青森県産業技術センター　農林部門　農林総合研究所　病虫部,青森県,黒石市,大字北田中,40.667574,140.590334,13116.02164527333,,False
地方独立行政法人青森県産業技術センター　農林部門　農林総合研究所　花き部,青森県,黒石市,大字北田中,40.667574,140.590334,13116.02164527333,,False
広島大学　大学院　理学研究科　附属宮島自然植物実験所,広島県,廿日市市,大野二丁目,34.283181,132.288206,13161.169395642753,,False
福岡県水産海洋技術センター　内水面研究所,福岡県,朝倉市,菱野,33.369742,130.745549,13292.027233823514,5030054923,False
奈良県農林部　農業総合センター　果樹振興センター,奈良県,五條市,西吉野町西新子,34.322733,135.722603,13331.092986469861,,False
千葉県農林水産部　畜産総合研究センター　市原乳牛研究所,千葉県,市原市,国本,35.284921,140.155419,13383.577115101662,5240714212,False
熊本県農業研究センター　果樹研究所,熊本県,宇城市,浦川内,32.641173,130.71568,13416.757595155943,,False
岐阜県農政部　河川環境研究所　下呂支所,岐阜県,下呂市,萩原萩原上,35.884161,137.20743,13434.906941237325,5337616621,False
富山県農林水産総合技術センター　畜産研究所,富山県,富山市,婦中町千里,36.634884,137.116128,13437.461302551708,,False
鹿児島大学　教育学部　寺山自然教育研究施設,鹿児島県,鹿児島市,吉野町,31.659009,130.604699,13438.603666669964,,False
佐賀県農林水産商工本部　茶業試験場,佐賀県,嬉野市,大字下宿今寺,33.117371,129.996043,13478.580716579498,,False
島根県立大学,島根県,浜田市,野原町,34.884651,132.076651,13641.595090099081,,False
島根県立大学　総合政策学部,島根県,浜田市,野原町,34.884651,132.076651,13641.595090099081,,False
千葉県農林水産部　農林総合研究センター　暖地園芸研究所,千葉県,館山市,山本,34.986563,139.900259,13671.553049940696,,False
三重県農業研究所　伊賀農業研究室,三重県,伊賀市,森寺,34.707077,136.134284,13684.567029485223,,False
島根県畜産技術センター　しまね和牛改良グループ,島根県,雲南市,木次町下熊谷,35.291749,132.886818,13691.564700751765,5232775022,False
長野県林業総合センター,長野県,塩尻市,大字片丘北熊井,36.143151,137.995163,13718.972943369527,5437177921,False
独立行政法人国立病院機構　徳島病院　四国神経・筋センター　臨床研究部,徳島県,吉野川市,鴨島町,34.055283,134.338533,13724.848992551979,5134026731,False
滋賀県水産試験場　醒井養鱒場,滋賀県,米原市,下丹生,35.303656,136.349362,13767.593506807392,5236726724,False
長崎県窯業技術センター,長崎県,波佐見町,稗木場郷,33.133859,129.872597,13785.450591860548,4929566922,False
山形県工業技術センター　庄内試験場,山形県,三川町,大字押切新田字桜木,38.798815,139.850378,13811.459232386895,5839165833,False
香川県産業技術センター　発酵食品研究所,香川県,小豆島町,馬木,34.469588,134.320891,13856.553353917052,5134526523,True
岩手県生物工学研究所,岩手県,花巻市,成田,39.350917,141.106789,13883.037367982266,,False
公益財団法人岩手生物工学研究センター,岩手県,花巻市,成田,39.350917,141.106789,13883.037367982266,,False
福島県農林水産部　農業総合センター,福島県,郡山市,日和田町高倉字深川,37.473189,140.388101,13890.751528081079,5640136133,False
東海大学　情報技術センター　宇宙情報センター,熊本県,菊陽町,大字戸次,32.83599,130.869687,13920.032436708054,,False
城西国際大学　観光学部,千葉県,鴨川市,太海,35.082068,140.091904,13982.501651885688,,False
秋田県立大学　地域連携・研究推進センター,秋田県,秋田市,下新城中野字街道端西,39.801207,140.046876,14005.966948362842,,False
秋田県立大学,秋田県,秋田市,下新城中野字街道端西,39.801207,140.046876,14005.966948362842,,False
秋田県立大学　生物資源科学部,秋田県,秋田市,下新城中野字街道端西,39.801207,140.046876,14005.966948362842,,False
秋田県立大学　総合科学教育研究センター,秋田県,秋田市,下新城中野字街道端西,39.801207,140.046876,14005.966948362842,,False
秋田県立大学　システム科学技術学部,秋田県,由利本荘市,川口字家妻,39.393318,140.073067,14017.535519013938,,False
公益財団法人北海道科学技術総合振興センター　幌延地圏環境研究所,北海道,幌延町,宮園町,45.017835,141.846927,14036.808651839701,6741462722,False
獨協医科大学　日光医療センター,栃木県,日光市,栗原,36.783683,139.706005,14078.36967294205,5539154612,False
福島県農林水産部　水産試験場,福島県,いわき市,小名浜字小屋ノ内,36.937135,140.916666,14093.126261245174,,False
福島県農林水産部　水産試験場　種苗研究部,福島県,いわき市,小名浜字小屋ノ内,36.937135,140.916666,14093.126261245174,,False
名桜大学,沖縄県,名護市,字為又,26.623196,127.974826,14176.764788753806,3927774744,False
名桜大学　人間健康学部,沖縄県,名護市,字為又,26.623196,127.974826,14176.764788753806,3927774744,False
名桜大学　国際学群,沖縄県,名護市,字為又,26.623196,127.974826,14176.764788753806,3927774744,False
名桜大学　国際学部,沖縄県,名護市,字為又,26.623196,127.974826,14176.764788753806,3927774744,False
名桜大学　大学院　国際文化研究科,沖縄県,名護市,字為又,26.623196,127.974826,14176.764788753806,3927774744,False
名桜大学　附属図書館,沖縄県,名護市,字為又,26.623196,127.974826,14176.764788753806,3927774744,False
名桜大学　総合研究所,沖縄県,名護市,字為又,26.623196,127.974826,14176.764788753806,3927774744,False
名桜大学　メディアネットワークセンター,沖縄県,名護市,字為又,26.623196,127.974826,14176.764788753806,3927774744,False
名桜大学　言語学習センター,沖縄県,名護市,字為又,26.623196,127.974826,14176.764788753806,3927774744,False
名桜大学　教員養成支援センター,沖縄県,名護市,字為又,26.623196,127.974826,14176.764788753806,3927774744,False
財団法人宮崎県産業支援財団,宮崎県,宮崎市,上田島,32.043878,131.42189,14200.446517666398,,False
千葉県農林水産部　水産総合研究センター　種苗生産研究所　勝浦生産開発室,千葉県,勝浦市,勝浦,35.140577,140.312691,14211.665888811413,5240526533,False
財団法人くまもとテクノ産業財団,熊本県,益城町,大字小谷,32.825004,130.844061,14238.890311336225,,False
島根県食料安全推進課　家畜病性鑑定室,島根県,出雲市,神西沖町,35.334624,132.693503,14239.302295105761,5332050512,False
熊本県農業研究センター　高原農業研究所,熊本県,阿蘇市,西町,32.933686,131.110689,14254.824969276524,4931302822,False
近畿大学　水産研究所,和歌山県,白浜町,中,33.647136,135.387316,14257.95290541362,,False
沖縄工業高等専門学校,沖縄県,名護市,字豊原,26.52595,128.030281,14261.259875675163,,False
沖縄工業高等専門学校　機械システム工学科,沖縄県,名護市,字豊原,26.52595,128.030281,14261.259875675163,,False
沖縄工業高等専門学校　情報通信システム工学科,沖縄県,名護市,字豊原,26.52595,128.030281,14261.259875675163,,False
沖縄工業高等専門学校　メディア情報工学科,沖縄県,名護市,字豊原,26.52595,128.030281,14261.259875675163,,False
沖縄工業高等専門学校　生物資源工学科,沖縄県,名護市,字豊原,26.52595,128.030281,14261.259875675163,,False
沖縄工業高等専門学校　専攻科　創造システム工学専攻,沖縄県,名護市,字豊原,26.52595,128.030281,14261.259875675163,,False
東京大学　大学院　理学系研究科　附属植物園　日光分園,栃木県,日光市,花石町,36.750188,139.588658,14277.297129054441,5539140711,False
高知県水産振興部　内水面漁業センター,高知県,香美市,明治河原,33.599804,133.702255,14310.011879431648,5033351633,False
鹿児島県工業技術センター,鹿児島県,霧島市,隼人町野久美田,31.739582,130.711833,14327.554737792452,4730458642,False
岩手県立大学　社会福祉学部,岩手県,滝沢市,巣子,39.802325,141.137251,14351.015040653336,,False
岩手県立大学,岩手県,滝沢市,巣子,39.802325,141.137251,14351.015040653336,,False
岩手県立大学　看護学部,岩手県,滝沢市,巣子,39.802325,141.137251,14351.015040653336,,False
岩手県立大学　ソフトウェア情報学部,岩手県,滝沢市,巣子,39.802325,141.137251,14351.015040653336,,False
岩手県立大学　総合政策学部,岩手県,滝沢市,巣子,39.802325,141.137251,14351.015040653336,,False
岩手県立大学　大学院　看護学研究科,岩手県,滝沢市,巣子,39.802325,141.137251,14351.015040653336,,False
岩手県立大学　大学院　社会福祉学研究科,岩手県,滝沢市,巣子,39.802325,141.137251,14351.015040653336,,False
岩手県立大学　大学院　ソフトウェア情報学研究科,岩手県,滝沢市,巣子,39.802325,141.137251,14351.015040653336,,False
岩手県立大学　大学院　総合政策研究科,岩手県,滝沢市,巣子,39.802325,141.137251,14351.015040653336,,False
岩手県立大学　メディアセンター,岩手県,滝沢市,巣子,39.802325,141.137251,14351.015040653336,,False
岩手県立大学　共通教育センター,岩手県,滝沢市,巣子,39.802325,141.137251,14351.015040653336,,False
岩手県立大学　盛岡短期大学部,岩手県,滝沢市,巣子,39.802325,141.137251,14351.015040653336,,False
岩手県立大学　盛岡短期大学部　生活科学科,岩手県,滝沢市,巣子,39.802325,141.137251,14351.015040653336,,False
岩手県立大学　盛岡短期大学部　国際文化学科,岩手県,滝沢市,巣子,39.802325,141.137251,14351.015040653336,,False
宮崎県水産試験場,宮崎県,宮崎市,青島三丁目,31.794175,131.474997,14393.984283906153,4731535724,False
独立行政法人海洋研究開発機構　高知コア研究所,高知県,南国市,物部,33.554163,133.675609,14456.080650315656,5033256413,False
高知大学　農学部,高知県,南国市,物部,33.553813,133.677157,14456.080650315656,5033256413,False
高知大学　農学部　附属暖地フィールドサイエンス教育研究センター,高知県,南国市,物部,33.553813,133.677157,14456.080650315656,5033256413,False
高知大学　総合情報センター　図書館　農学部分館,高知県,南国市,物部,33.553813,133.677157,14456.080650315656,5033256413,False
高知大学　海洋コア総合研究センター,高知県,南国市,物部,33.554163,133.675609,14456.080650315656,5033256413,False
高知大学　総合研究センター　生命・機能物質部門　遺伝子実験施設,高知県,南国市,物部,33.553813,133.677157,14456.080650315656,5033256413,False
高知大学　教育研究部　自然科学系　農学部門,高知県,南国市,物部,33.553813,133.677157,14456.080650315656,5033256413,False
高知大学　教育研究部　総合科学系　黒潮圏科学部門,高知県,南国市,物部,33.553813,133.677157,14456.080650315656,5033256413,False
高知大学　大学院　総合人間自然科学研究科,高知県,南国市,物部,33.553813,133.677157,14456.080650315656,5033256413,False
お茶の水女子大学　湾岸生物教育研究センター,千葉県,館山市,香,34.978872,139.821506,14456.444113747444,5239367523,False
千葉科学大学,千葉県,銚子市,潮見町,35.706167,140.841636,14457.166269133433,,False
千葉科学大学　薬学部,千葉県,銚子市,潮見町,35.706167,140.841636,14457.166269133433,,False
千葉科学大学　危機管理学部,千葉県,銚子市,潮見町,35.706167,140.841636,14457.166269133433,,False
千葉科学大学　大学院　薬学研究科,千葉県,銚子市,潮見町,35.706167,140.841636,14457.166269133433,,False
千葉科学大学　大学院　危機管理学研究科,千葉県,銚子市,潮見町,35.706167,140.841636,14457.166269133433,,False
栃木県環境森林部　林業センター,栃木県,宇都宮市,下小池町,36.674524,139.81362,14536.972375609457,5539060533,False
新潟県農業総合研究所　園芸研究センター,新潟県,聖籠町,大字真野,37.986879,139.294876,14549.87204553097,,False
仁愛大学,福井県,越前市,大手町,35.890412,136.211019,14594.19126390158,5336616644,False
仁愛大学　人間学部,福井県,越前市,大手町,35.890412,136.211019,14594.19126390158,5336616644,False
仁愛大学　人間生活学部,福井県,越前市,大手町,35.890412,136.211019,14594.19126390158,5336616644,False
仁愛大学　大学院　人間学研究科,福井県,越前市,大手町,35.890412,136.211019,14594.19126390158,5336616644,False
仁愛大学　附属図書館,福井県,越前市,大手町,35.890412,136.211019,14594.19126390158,5336616644,False
広島国際大学,広島県,東広島市,学園台,34.313414,132.687062,14602.890957811807,5132357442,False
広島国際大学　保健医療学部,広島県,東広島市,学園台,34.313414,132.687062,14602.890957811807,5132357442,False
広島国際大学　医療福祉学部,広島県,東広島市,学園台,34.313414,132.687062,14602.890957811807,5132357442,False
広島国際大学　心理科学部,広島県,東広島市,学園台,34.313414,132.687062,14602.890957811807,5132357442,False
広島国際大学　大学院　医療・福祉科学研究科,広島県,東広島市,学園台,34.313414,132.687062,14602.890957811807,5132357442,False
広島国際大学　大学院　心理科学研究科,広島県,東広島市,学園台,34.313414,132.687062,14602.890957811807,5132357442,False
広島国際大学　国際交流センター,広島県,東広島市,学園台,34.313414,132.687062,14602.890957811807,5132357442,False
広島国際大学　リメディアル学習支援室,広島県,東広島市,学園台,34.313414,132.687062,14602.890957811807,5132357442,False
山口県農林総合技術センター　林業技術部,山口県,山口市,宮野上下田住宅,34.20942,131.518427,14668.929032143575,5131245112,False
山口県農林総合技術センター　林業技術部　林業指導センター,山口県,山口市,宮野上下田住宅,34.20942,131.518427,14668.929032143575,5131245112,False
鳥取県農林水産部　農林総合研究所　農業試験場,鳥取県,鳥取市,美和,35.456016,134.228899,14718.12484537101,5334114832,False
独立行政法人森林総合研究所　林木育種センター,茨城県,高萩市,大字石滝,36.691831,140.690545,14806.836929992873,,False
高岡法科大学,富山県,高岡市,オフィスパーク,36.670023,137.001587,14843.444470742712,,False
高岡法科大学　法学部,富山県,高岡市,オフィスパーク,36.670023,137.001587,14843.444470742712,,False
高岡法科大学　大学院　法学研究科,富山県,高岡市,オフィスパーク,36.670023,137.001587,14843.444470742712,,False
山口県農林総合技術センター　農業技術部　農業試験場　花き振興センター,山口県,柳井市,新庄,33.98081,132.089277,14906.61846233896,5032707731,False
地方独立行政法人青森県産業技術センター　食品加工部門　下北ブランド研究所,青森県,むつ市,大畑町二枚橋,41.403769,141.174965,14979.216278858768,6241018324,False
独立行政法人宇宙航空研究開発機構　宇宙輸送ミッション本部角田宇宙センター,宮城県,角田市,君萱字小金沢,38.038545,140.764365,15003.999463130509,,False
岡山県産業労働部　工業技術センター,岡山県,岡山市北区,田原,34.729538,133.878283,15027.191023362888,,False
島根県保健環境科学研究所,島根県,松江市,西浜佐陀町,35.47504,133.012831,15049.861004634777,5333107111,False
立命館アジア太平洋大学,大分県,別府市,大字野田,33.33693,131.469856,15056.470997503875,,False
立命館アジア太平洋大学　アジア太平洋学部,大分県,別府市,大字野田,33.33693,131.469856,15056.470997503875,,False
立命館アジア太平洋大学　国際経営学部,大分県,別府市,大字野田,33.33693,131.469856,15056.470997503875,,False
立命館アジア太平洋大学　大学院　アジア太平洋研究科,大分県,別府市,大字野田,33.33693,131.469856,15056.470997503875,,False
立命館アジア太平洋大学　大学院　経営管理研究科,大分県,別府市,大字野田,33.33693,131.469856,15056.470997503875,,False
立命館アジア太平洋大学　立命館アジア太平洋研究センター,大分県,別府市,大字野田,33.33693,131.469856,15056.470997503875,,False
立命館アジア太平洋大学　言語教育センター,大分県,別府市,大字野田,33.33693,131.469856,15056.470997503875,,False
立命館アジア太平洋大学　総合情報センター,大分県,別府市,大字野田,33.33693,131.469856,15056.470997503875,,False
立命館アジア太平洋大学　教育開発・学修支援センター,大分県,別府市,大字野田,33.33693,131.469856,15056.470997503875,,False
新潟大学　農学部　附属フィールド科学教育研究センター　耕地生産部村松ステーション,新潟県,五泉市,愛宕,37.690061,139.19455,15075.317853500204,5639412543,False
広島国際学院大学　自動車短期大学部,広島県,広島市安芸区,上瀬野南二丁目,34.425494,132.626965,15154.321553856984,,False
広島国際学院大学　自動車短期大学部　専攻科　整備工学専攻,広島県,広島市安芸区,上瀬野南二丁目,34.425494,132.626965,15154.321553856984,,False
高野山大学,和歌山県,高野町,大字高野山,34.21228,135.585358,15171.576169316797,5135245624,False
高野山大学　文学部,和歌山県,高野町,大字高野山,34.21228,135.585358,15171.576169316797,5135245624,False
高野山大学　大学院　文学研究科,和歌山県,高野町,大字高野山,34.21228,135.585358,15171.576169316797,5135245624,False
高野山大学　別科,和歌山県,高野町,大字高野山,34.21228,135.585358,15171.576169316797,5135245624,False
高野山大学　密教文化研究所,和歌山県,高野町,大字高野山,34.21228,135.585358,15171.576169316797,5135245624,False
中京学院大学,岐阜県,中津川市,手賀野,35.468019,137.489232,15179.478727943162,5337136911,False
中京学院大学　経営学部,岐阜県,中津川市,手賀野,35.468019,137.489232,15179.478727943162,5337136911,False
茨城大学　広域水圏環境科学教育研究センター,茨城県,潮来市,釜谷,35.997877,140.55936,15195.962839473126,5340749441,False
香川大学　農学部　附属農場,香川県,さぬき市,昭和,34.280065,134.16602,15216.429630852233,5134313332,False
三重県工業研究所　窯業研究室　伊賀分室,三重県,伊賀市,丸柱,34.840031,136.129059,15224.985959468362,5236210034,False
長野県畜産試験場,長野県,塩尻市,大字片丘南熊井,36.120648,137.983413,15238.373064930103,5437174823,False
福岡県農業総合試験場　果樹苗木分場,福岡県,久留米市,田主丸町森部,33.328357,130.712228,15308.896068090384,4930759624,False
新潟工科大学,新潟県,柏崎市,大字藤橋,37.33949,138.578849,15340.93654708231,,False
新潟工科大学　工学部,新潟県,柏崎市,大字藤橋,37.33949,138.578849,15340.93654708231,,False
新潟工科大学　大学院　工学研究科,新潟県,柏崎市,大字藤橋,37.33949,138.578849,15340.93654708231,,False
新潟工科大学　附属図書館,新潟県,柏崎市,大字藤橋,37.33949,138.578849,15340.93654708231,,False
筑波大学　下田臨海実験センター,静岡県,下田市,五丁目,34.667697,138.935527,15353.712170888319,5238070422,False
岡山大学　研究推進産学官連携機構,岡山県,岡山市北区,田原,34.728806,133.880654,15383.492533123655,,False
公益財団法人環境科学技術研究所,青森県,六ヶ所村,大字尾駮,40.96541,141.360552,15394.296724312657,6141325844,False
兵庫県立大学　自然・環境科学研究所,兵庫県,淡路市,野島常盤,34.562998,134.965667,15403.049035054739,5134677732,False
新潟医療福祉大学,新潟県,新潟市北区,島見町,37.965544,139.187361,15471.081468784383,,False
新潟医療福祉大学　医療技術学部,新潟県,新潟市北区,島見町,37.965544,139.187361,15471.081468784383,,False
新潟医療福祉大学　健康科学部,新潟県,新潟市北区,島見町,37.965544,139.187361,15471.081468784383,,False
新潟医療福祉大学　社会福祉学部,新潟県,新潟市北区,島見町,37.965544,139.187361,15471.081468784383,,False
新潟医療福祉大学　大学院　医療福祉学研究科,新潟県,新潟市北区,島見町,37.965544,139.187361,15471.081468784383,,False
高知工科大学,高知県,香美市,片地佐古藪,33.620776,133.719735,15490.332068063095,,False
高知工科大学　システム工学群,高知県,香美市,片地佐古藪,33.620776,133.719735,15490.332068063095,,False
高知工科大学　環境理工学群,高知県,香美市,片地佐古藪,33.620776,133.719735,15490.332068063095,,False
高知工科大学　情報学群,高知県,香美市,片地佐古藪,33.620776,133.719735,15490.332068063095,,False
高知工科大学　マネジメント学部,高知県,香美市,片地佐古藪,33.620776,133.719735,15490.332068063095,,False
高知工科大学　大学院　工学研究科,高知県,香美市,片地佐古藪,33.620776,133.719735,15490.332068063095,,False
高知工科大学　地域連携機構,高知県,香美市,片地佐古藪,33.620776,133.719735,15490.332068063095,,False
高知工科大学　地域連携機構　連携研究センター,高知県,香美市,片地佐古藪,33.620776,133.719735,15490.332068063095,,False
高知工科大学　附属情報図書館,高知県,香美市,片地佐古藪,33.620776,133.719735,15490.332068063095,,False
高知工科大学　総合研究所,高知県,香美市,片地佐古藪,33.620776,133.719735,15490.332068063095,,False
高知工科大学　共通教育教室,高知県,香美市,片地佐古藪,33.620776,133.719735,15490.332068063095,,False
高知工科大学　教育講師室,高知県,香美市,片地佐古藪,33.620776,133.719735,15490.332068063095,,False
高知工科大学　ナノデバイス研究所,高知県,香美市,片地佐古藪,33.620776,133.719735,15490.332068063095,,False
高知工科大学　ナノ創製センター,高知県,香美市,片地佐古藪,33.620776,133.719735,15490.332068063095,,False
高知工科大学　社会マネジメントシステム研究センター,高知県,香美市,片地佐古藪,33.620776,133.719735,15490.332068063095,,False
愛媛県農林水産研究所　農業研究部　花き研究指導室,愛媛県,東温市,田窪,33.780608,132.865216,15613.467638820981,5032563931,False
佐賀県農林水産商工本部　畜産試験場,佐賀県,武雄市,大字三間坂,33.191878,129.941321,15684.035867966773,4929673512,False
香川県水産試験場,香川県,高松市,屋島東町,34.367545,134.110536,15702.382007557988,5134404822,False
香川県赤潮研究所,香川県,高松市,屋島東町,34.367545,134.110536,15702.382007557988,5134404822,False
地方独立行政法人北海道立総合研究機構　水産研究本部　稚内水産試験場,北海道,稚内市,末広四丁目,45.401825,141.698569,15732.427139084111,,False
茨城県水産試験場　内水面支場,茨城県,行方市,甲字高須,36.098376,140.403223,15788.419296266276,5440131234,False
独立行政法人国立病院機構　宮城病院　臨床研究部,宮城県,山元町,高瀬字合戦原,37.942708,140.892232,15867.129657073723,5640773112,False
藤田保健衛生大学　藤田記念七栗研究所,三重県,津市,大鳥町,34.685608,136.393995,15870.972200106346,5236032123,False
鳥取短期大学,鳥取県,倉吉市,福庭,35.456118,133.85971,15913.951384759283,,False
鳥取短期大学　国際文化交流学科,鳥取県,倉吉市,福庭,35.456118,133.85971,15913.951384759283,,False
鳥取短期大学　生活学科,鳥取県,倉吉市,福庭,35.456118,133.85971,15913.951384759283,,False
鳥取短期大学　幼児教育学科,鳥取県,倉吉市,福庭,35.456118,133.85971,15913.951384759283,,False
鳥取短期大学　図書館,鳥取県,倉吉市,福庭,35.456118,133.85971,15913.951384759283,,False
鳥取短期大学　北東アジア文化総合研究所,鳥取県,倉吉市,福庭,35.456118,133.85971,15913.951384759283,,False
鳥取短期大学　絣美術館,鳥取県,倉吉市,福庭,35.456118,133.85971,15913.951384759283,,False
一般社団法人鹿島市観光協会,佐賀県,鹿島市,古枝下古枝,33.0793,130.10845,15932.52731685294,4930409841,False
帯広大谷短期大学,北海道,音更町,希望が丘,42.989488,143.19574,15942.254073631299,6443318541,False
帯広大谷短期大学　総合文化学科,北海道,音更町,希望が丘,42.989488,143.19574,15942.254073631299,6443318541,False
帯広大谷短期大学　生活科学科,北海道,音更町,希望が丘,42.989488,143.19574,15942.254073631299,6443318541,False
帯広大谷短期大学　社会福祉科,北海道,音更町,希望が丘,42.989488,143.19574,15942.254073631299,6443318541,False
独立行政法人電子航法研究所　岩沼分室,宮城県,岩沼市,下野郷,38.133819,140.91685,15963.223380919213,5740176312,False
島根県水産技術センター　内水面浅海部　内水面グループ,島根県,浜田市,瀬戸ケ島町,34.902545,132.063947,15977.861273004339,5232208513,False
島根県水産技術センター,島根県,浜田市,瀬戸ケ島町,34.902195,132.063922,15977.861273004339,5232208513,False
東京大学　大学院　農学生命科学研究科　附属牧場,茨城県,小美玉市,大字手堤,36.275002,140.329957,15986.28819423906,5440323612,False
岡山県農林水産総合センター　森林研究所　木材加工研究室,岡山県,真庭市,勝山新建北側上,35.083819,133.69941,15991.534115184897,5233550522,False
富山県総合デザインセンター,富山県,高岡市,オフィスパーク,36.669527,136.999533,15997.012314558167,,False
新潟県立歴史博物館,新潟県,長岡市,関原町一丁目,37.438136,138.767866,15999.862353798488,,False
福岡県水産海洋技術センター　有明海研究所,福岡県,柳川市,大字大浜町,33.140013,130.381611,16010.918772396519,4930536043,False
山口福祉文化大学,山口県,萩市,大字椿東前小畑一区,34.430739,131.422273,16030.615958769808,,False
山口福祉文化大学　国際情報学部,山口県,萩市,大字椿東前小畑一区,34.430739,131.422273,16030.615958769808,,False
公益財団法人北陸先端科学技術大学院大学支援財団,石川県,能美市,旭台,36.445883,136.590544,16055.367536527328,5436543713,False
奈良県農林部　農業総合センター　高原農業振興センター,奈良県,宇陀市,榛原三宮寺,34.488523,135.959815,16063.249515768033,5135578642,False
静岡県経済産業部　農林技術研究所　茶業研究センター,静岡県,牧之原市,牧之原嶋,34.78425,138.140313,16112.701587684529,,False
長崎国際大学,長崎県,佐世保市,ハウステンボス町,33.102068,129.790848,16153.211265942387,4929562312,False
長崎国際大学　人間社会学部,長崎県,佐世保市,ハウステンボス町,33.102068,129.790848,16153.211265942387,4929562312,False
長崎国際大学　健康管理学部,長崎県,佐世保市,ハウステンボス町,33.102068,129.790848,16153.211265942387,4929562312,False
財団法人食品農医薬品安全性評価センター,静岡県,磐田市,塩新田,34.662061,137.856895,16165.831771533682,,False
岐阜県農政部　中山間農業研究所　中津川支所,岐阜県,中津川市,千旦林,35.482099,137.469922,16182.585157756908,,False
茨城県林業技術センター,茨城県,那珂市,戸崎,36.469462,140.436842,16185.640122766263,,False
福井県農林水産部　農業試験場,福井県,福井市,寮町,36.058961,136.277262,16288.121702524631,,False
茨城県農業総合センター,茨城県,小美玉市,大字手堤,36.275685,140.323336,16301.625071413873,,False
茨城県農業総合センター　生物工学研究所,茨城県,小美玉市,大字手堤,36.275685,140.323336,16301.625071413873,,False
茨城県農業総合センター　園芸研究所,茨城県,小美玉市,大字手堤,36.275685,140.323336,16301.625071413873,,False
茨城大学　宇宙科学教育研究センター,茨城県,高萩市,大字石滝,36.69978,140.696147,16326.130431497937,5540053543,False
長崎県環境保健研究センター,長崎県,大村市,原町,32.939125,129.978518,16365.877695257208,,False
富士大学,岩手県,花巻市,山の神,39.360631,141.103997,16435.25850029084,5941003814,False
富士大学　経済学部,岩手県,花巻市,山の神,39.360631,141.103997,16435.25850029084,5941003814,False
島根県農業技術センター,島根県,出雲市,西新町二丁目,35.33132,132.730319,16520.81764679564,,False
三重大学　大学院　生物資源学研究科　附属練習船勢水丸,三重県,松阪市,松阪市,34.610879,136.561509,16577.410245682797,,False
一般財団法人阪大微生物病研究会　観音寺研究所,香川県,観音寺市,八幡町二丁目,34.139341,133.646943,16602.639084298058,,False
徳島工業短期大学,徳島県,板野町,松谷,34.143023,134.445244,16650.378690917347,5134137521,False
徳島工業短期大学　自動車工業学科,徳島県,板野町,松谷,34.143023,134.445244,16650.378690917347,5134137521,False
徳島工業短期大学　専攻科　車体整備工学専攻,徳島県,板野町,松谷,34.143023,134.445244,16650.378690917347,5134137521,False
独立行政法人医薬基盤研究所　薬用植物資源研究センター　和歌山研究部,和歌山県,日高川町,大字土生,33.912127,135.185219,16651.723871639915,5035619424,False
岡山セラミックス技術振興財団,岡山県,備前市,浦伊部,34.740793,134.183143,16689.962470705595,5234018443,False
長野県工科短期大学校,長野県,上田市,下之郷,36.362632,138.23411,16734.54047153885,,False
徳島県立農林水産総合技術支援センター　水産研究所,徳島県,鳴門市,瀬戸町堂浦,34.213515,134.584064,16762.366227367125,5134245641,False
徳島県立農林水産総合技術支援センター　水産研究所　鳴門庁舎,徳島県,鳴門市,瀬戸町堂浦,34.213515,134.584064,16762.366227367125,5134245641,False
長野県農業試験場　原村試験地,長野県,原村,八ッ手,35.97884,138.222084,16767.031901587274,5338717724,False
秋田県産業労働部　産業技術センター,秋田県,秋田市,新屋町字砂奴寄,39.724749,140.065592,16776.38923175407,,False
富山県農林水産総合技術センター　園芸研究所,富山県,砺波市,鹿島,36.611416,136.958521,16781.694615790828,5436773623,False
和歌山工業高等専門学校,和歌山県,御坊市,名田町上野,33.833904,135.177734,16795.348479591135,5035610411,False
和歌山工業高等専門学校　知能機械工学科,和歌山県,御坊市,名田町上野,33.833904,135.177734,16795.348479591135,5035610411,False
和歌山工業高等専門学校　電気情報工学科,和歌山県,御坊市,名田町上野,33.833904,135.177734,16795.348479591135,5035610411,False
和歌山工業高等専門学校　物質工学科,和歌山県,御坊市,名田町上野,33.833904,135.177734,16795.348479591135,5035610411,False
和歌山工業高等専門学校　環境都市工学科,和歌山県,御坊市,名田町上野,33.833904,135.177734,16795.348479591135,5035610411,False
和歌山工業高等専門学校　専攻科　メカトロニクス工学専攻,和歌山県,御坊市,名田町上野,33.833904,135.177734,16795.348479591135,5035610411,False
和歌山工業高等専門学校　専攻科　エコシステム工学専攻,和歌山県,御坊市,名田町上野,33.833904,135.177734,16795.348479591135,5035610411,False
和歌山工業高等専門学校　図書館,和歌山県,御坊市,名田町上野,33.833904,135.177734,16795.348479591135,5035610411,False
和歌山工業高等専門学校　情報処理教育センター,和歌山県,御坊市,名田町上野,33.833904,135.177734,16795.348479591135,5035610411,False
和歌山工業高等専門学校　地域共同テクノセンター,和歌山県,御坊市,名田町上野,33.833904,135.177734,16795.348479591135,5035610411,False
千葉県農林水産部　農林総合研究センター　北総園芸研究所,千葉県,香取市,大根,35.859611,140.501795,16798.72400133983,5340643011,False
愛知新城大谷大学,愛知県,新城市,川路,34.913739,137.534248,16843.001140152275,5237249241,False
愛知新城大谷大学　短期大学部,愛知県,新城市,川路,34.913739,137.534248,16843.001140152275,5237249241,False
山梨県農政部　酪農試験場,山梨県,北杜市,長坂町長坂上条,35.819849,138.368838,16861.092409812754,5338528923,False
佐賀県農林水産商工本部　窯業技術センター,佐賀県,有田町,黒牟田,33.196021,129.869722,16922.563640845827,4929663941,False
山梨県農政部　果樹試験場,山梨県,山梨市,江曽原,35.700218,138.664283,16936.104054668907,5338454311,False
京都府織物・機械金属振興センター,京都府,京丹後市,峰山東,35.620448,135.070117,16977.649632404195,,False
京都大学　フィールド科学教育研究センター　舞鶴水産実験所,京都府,舞鶴市,余部下長浜工業地区,35.489975,135.367645,17054.231301917604,,False
大分県農林水産研究指導センター　林業研究部　きのこグループ,大分県,豊後大野市,三重町赤嶺,32.987905,131.590308,17059.262558224516,,False
秋田県産業労働部　産業技術センター　高度技術研究館,秋田県,秋田市,新屋町字砂奴寄,39.723286,140.0664,17071.546196059175,,False
沖縄県農業研究センター,沖縄県,糸満市,字真壁,26.110897,127.686965,17080.754035144964,,False
独立行政法人農業・食品産業技術総合研究機構　野菜茶業研究所,三重県,津市,安濃町粟加,34.773677,136.430991,17170.8467553305,,False
地方独立行政法人北海道立総合研究機構　水産研究本部,北海道,余市町,沢町一丁目,43.203792,140.774543,17231.29248894427,6440664124,False
地方独立行政法人北海道立総合研究機構　水産研究本部　中央水産試験場,北海道,余市町,沢町一丁目,43.203792,140.774543,17231.29248894427,6440664124,False
東京大学　地震研究所　観測開発基盤センター　鋸山地殻変動観測所,千葉県,鋸南町,元名,35.159525,139.825374,17232.187344413247,,False
秋田県総合食品研究センター,秋田県,秋田市,新屋町字砂奴寄,39.721762,140.066885,17239.149717668184,,False
鹿児島県森林技術総合センター,鹿児島県,姶良市,上久徳,31.760593,130.580231,17311.59691219599,4730541614,False
岡山大学　農学部　附属山陽圏フィールド科学センター　八浜農場,岡山県,玉野市,八浜町大崎,34.53647,133.926337,17331.450217944646,5133674413,False
金沢工業大学　先端電子技術応用研究所,石川県,金沢市,天池町,36.502785,136.695767,17339.345066138598,,False
三重県保健環境研究所,三重県,四日市市,北谷町,34.992334,136.485279,17346.11575419367,,False
鹿児島県工業技術センター　奄美分庁舎,鹿児島県,奄美市,名瀬浦上町,28.392443,129.536522,17426.769903485136,4229447222,True
鹿児島県大島紬技術指導センター,鹿児島県,奄美市,名瀬浦上町,28.392443,129.536522,17426.769903485136,4229447222,True
西九州大学,佐賀県,神埼市,大字尾崎字平山,33.33092,130.347534,17483.18972274405,,False
西九州大学　子ども学部,佐賀県,神埼市,大字尾崎字平山,33.33092,130.347534,17483.18972274405,,False
光産業創成大学院大学,静岡県,浜松市西区,呉松町,34.776822,137.629751,17503.747648758555,,False
茨城県畜産センター,茨城県,石岡市,根小屋,36.210191,140.225516,17509.406821655866,,False
高知県商工労働部　紙産業技術センター,高知県,いの町,波川新道,33.544793,133.411267,17545.016372665086,5033235224,False
三重県林業研究所,三重県,津市,白山町二本木,34.65824,136.371869,17585.50388490894,5136728943,False
徳島県立農林水産総合技術支援センター　畜産研究所,徳島県,上板町,鍛冶屋原,34.126582,134.39904,17605.92168172428,5134135122,False
京都大学　防災研究所　附属火山活動研究センター,鹿児島県,鹿児島市,桜島横山町,31.589761,130.601255,17684.978276020793,4730340833,False
日本福祉大学,愛知県,美浜町,大字奥田字御茶銭,34.784215,136.868559,17737.436305273055,,False
日本福祉大学　社会福祉学部,愛知県,美浜町,大字奥田字御茶銭,34.784215,136.868559,17737.436305273055,,False
日本福祉大学　経済学部,愛知県,美浜町,大字奥田字御茶銭,34.784215,136.868559,17737.436305273055,,False
日本福祉大学　福祉経営学部　通信教育,愛知県,美浜町,大字奥田字御茶銭,34.784215,136.868559,17737.436305273055,,False
日本福祉大学　子ども発達学部,愛知県,美浜町,大字奥田字御茶銭,34.784215,136.868559,17737.436305273055,,False
日本福祉大学　国際福祉開発学部,愛知県,美浜町,大字奥田字御茶銭,34.784215,136.868559,17737.436305273055,,False
日本福祉大学　福祉社会開発研究所,愛知県,美浜町,大字奥田字御茶銭,34.784215,136.868559,17737.436305273055,,False
日本福祉大学　心理臨床研究センター　子ども発達支援室,愛知県,美浜町,大字奥田字御茶銭,34.784215,136.868559,17737.436305273055,,False
日本福祉大学　スポーツ教育センター,愛知県,美浜町,大字奥田字御茶銭,34.784215,136.868559,17737.436305273055,,False
日本福祉大学　全学教育センター,愛知県,美浜町,大字奥田字御茶銭,34.784215,136.868559,17737.436305273055,,False
新潟県水産海洋研究所,新潟県,新潟市西区,五十嵐三の町,37.860167,138.909694,17770.884684046727,,False
東海大学　開発工学部,静岡県,沼津市,平沼,35.160572,138.792524,17804.80816662595,,False
東海大学　大学院　開発工学研究科,静岡県,沼津市,平沼,35.160572,138.792524,17804.80816662595,,False
東海大学　沼津教養教育センター,静岡県,沼津市,平沼,35.160572,138.792524,17804.80816662595,,False
山口短期大学,山口県,防府市,大字台道雇用促進住宅,34.051178,131.493793,17808.69365599305,5131036921,False
山口短期大学　児童教育学科,山口県,防府市,大字台道雇用促進住宅,34.051178,131.493793,17808.69365599305,5131036921,False
山口短期大学　情報メディア学科,山口県,防府市,大字台道雇用促進住宅,34.051178,131.493793,17808.69365599305,5131036921,False
石川県農林水産部　農林総合研究センター,石川県,金沢市,才田町,36.643441,136.693814,17809.263636600535,,False
石川県農林水産部　農林総合研究センター　農業試験場,石川県,金沢市,才田町,36.643441,136.693814,17809.263636600535,,False
尾道市立大学,広島県,尾道市,久山田町,34.424084,133.161573,17936.024745074952,5133510244,False
尾道市立大学　経済情報学部,広島県,尾道市,久山田町,34.424084,133.161573,17936.024745074952,5133510244,False
尾道市立大学　芸術文化学部,広島県,尾道市,久山田町,34.424084,133.161573,17936.024745074952,5133510244,False
尾道市立大学　大学院　経済情報研究科,広島県,尾道市,久山田町,34.424084,133.161573,17936.024745074952,5133510244,False
尾道市立大学　大学院　日本文学研究科,広島県,尾道市,久山田町,34.424084,133.161573,17936.024745074952,5133510244,False
尾道市立大学　大学院　美術研究科,広島県,尾道市,久山田町,34.424084,133.161573,17936.024745074952,5133510244,False
群馬県農業技術センター　中山間地園芸研究センター,群馬県,沼田市,堀廻町,36.668277,139.023516,17969.115959776107,5539000122,False
八戸工業大学,青森県,八戸市,大字妙字大開,40.47959,141.562752,17969.296043592298,6041547531,False
八戸工業大学　工学部,青森県,八戸市,大字妙字大開,40.47959,141.562752,17969.296043592298,6041547531,False
八戸工業大学　感性デザイン学部,青森県,八戸市,大字妙字大開,40.47959,141.562752,17969.296043592298,6041547531,False
八戸工業大学　大学院　工学研究科,青森県,八戸市,大字妙字大開,40.47959,141.562752,17969.296043592298,6041547531,False
八戸工業大学　エネルギー環境システム研究所,青森県,八戸市,大字妙字大開,40.47959,141.562752,17969.296043592298,6041547531,False
八戸工業大学　基礎教育研究センター,青森県,八戸市,大字妙字大開,40.47959,141.562752,17969.296043592298,6041547531,False
びわこ成蹊スポーツ大学,滋賀県,大津市,南小松,35.226858,135.949684,17974.89049597895,5235677522,False
和歌山大学　南紀熊野サテライト,和歌山県,田辺市,たきない町,33.696075,135.396128,18018.759869549747,,False
宮崎県総合農業試験場,宮崎県,宮崎市,下那珂,32.003418,131.461701,18027.31493870442,,False
拓殖大学北海道短期大学,北海道,深川市,錦町西,43.71659,142.021469,18039.801420122,6542405143,False
財団法人動物繁殖研究所　第二研究所,茨城県,かすみがうら市,三ツ木,36.096031,140.312791,18042.379886543444,5440121531,False
千葉県農林水産部　農林総合研究センター　育種研究所　水稲育種研究室,千葉県,香取市,佐原ニ,35.920754,140.496935,18054.51585536539,,False
兵庫県立農林水産技術総合センター,兵庫県,加西市,常吉町,34.917896,134.89321,18116.4225034241,,False
兵庫県立農林水産技術総合センター　農業技術センター,兵庫県,加西市,常吉町,34.917896,134.89321,18116.4225034241,,False
兵庫県立農林水産技術総合センター　畜産技術センター,兵庫県,加西市,常吉町,34.917896,134.89321,18116.4225034241,,False
財団法人日本きのこセンター　菌蕈研究所,鳥取県,鳥取市,美和,35.455719,134.234658,18162.791008254262,5334114842,False
広島文化学園大学,広島県,呉市,郷原学びの丘一丁目,34.288806,132.637261,18181.339905976383,5132354042,False
広島文化学園大学　社会情報学部,広島県,呉市,郷原学びの丘一丁目,34.288806,132.637261,18181.339905976383,5132354042,False
広島文化学園大学　大学院　社会情報研究科,広島県,呉市,郷原学びの丘一丁目,34.288806,132.637261,18181.339905976383,5132354042,False
宇都宮大学　農学部　附属農場,栃木県,真岡市,下籠谷,36.49262,139.98498,18269.357374477233,,False
鹿児島大学　農学部　附属演習林　桜島溶岩実験場,鹿児島県,鹿児島市,桜島横山町,31.591226,130.598699,18273.309733472575,4730340744,False
滋賀県農業技術振興センター,滋賀県,近江八幡市,安土町大中,35.174484,136.131156,18294.45602706645,,False
岡山県農林水産総合センター,岡山県,赤磐市,東窪田,34.783012,134.014931,18323.314668073228,,False
岡山県農林水産総合センター　農業研究所,岡山県,赤磐市,東窪田,34.783012,134.014931,18323.314668073228,,False
香川県農業試験場　府中果樹研究所,香川県,高松市,国分寺町国分,34.301543,133.93615,18360.858869681317,5133376422,False
香川県農業試験場　府中果樹研究所　栽培担当,香川県,高松市,国分寺町国分,34.301543,133.93615,18360.858869681317,5133376422,False
香川県農業試験場　府中果樹研究所　環境担当,香川県,高松市,国分寺町国分,34.301543,133.93615,18360.858869681317,5133376422,False
東北公益文科大学,山形県,酒田市,飯森山三丁目,38.893493,139.819439,18381.438990282797,,False
東北公益文科大学　公益学部,山形県,酒田市,飯森山三丁目,38.893493,139.819439,18381.438990282797,,False
東北公益文科大学　メディアセンター,山形県,酒田市,飯森山三丁目,38.893493,139.819439,18381.438990282797,,False
九州看護福祉大学,熊本県,玉名市,富尾,32.947455,130.552946,18387.83067514896,,False
九州看護福祉大学　看護福祉学部,熊本県,玉名市,富尾,32.947455,130.552946,18387.83067514896,,False
伊達市噴火湾文化研究所,北海道,伊達市,館山下町,42.481082,140.855143,18515.0833716945,,False
中京学院大学　看護学部,岐阜県,瑞浪市,土岐町,35.384253,137.264602,18542.985922663556,5337026111,False
中京学院大学　中京短期大学部,岐阜県,瑞浪市,土岐町,35.384253,137.264602,18542.985922663556,5337026111,False
滋賀県畜産技術振興センター　西部指導所,滋賀県,日野町,大字山本,35.028169,136.224396,18606.17299248626,,False
滋賀県畜産技術振興センター,滋賀県,日野町,大字山本,35.027835,136.224428,18618.93795258404,,False
愛媛県農林水産研究所　果樹研究センター,愛媛県,松山市,下伊台町,33.881597,132.804115,18684.287665844367,,False
新見公立大学,岡山県,新見市,西方,34.997771,133.441899,18729.845125452935,5233339532,False
新見公立短期大学,岡山県,新見市,西方,34.997771,133.441899,18729.845125452935,5233339532,False
山形県置賜総合支庁産業経済部農業技術普及課産地研究室,山形県,南陽市,宮内足軽町,38.079979,140.142357,18766.165351918196,5740019132,False
茨城県農業総合センター　農業研究所,茨城県,水戸市,上国井町,36.440217,140.445897,18853.05821195659,5440532543,False
茨城県農業総合センター　生物工学研究所,茨城県,水戸市,上国井町,36.440217,140.445897,18853.05821195659,5440532543,False
福島県ハイテクプラザ　いわき技術支援センター,福島県,いわき市,常磐下船尾町,36.997677,140.878259,18890.56838905553,,False
独立行政法人日本原子力研究開発機構　東海研究開発センター　原子力科学研究所,茨城県,東海村,大字村松真崎,36.458607,140.600523,18892.61913984534,,False
独立行政法人日本原子力研究開発機構　Ｊ‐ＰＡＲＣセンター,茨城県,東海村,大字村松真崎,36.458607,140.600523,18892.61913984534,,False
独立行政法人国立病院機構　山口宇部医療センター　臨床研究部,山口県,宇部市,大字東岐波旭ケ丘,33.977349,131.347336,18899.729221762253,5031727724,False
地方独立行政法人青森県産業技術センター　水産部門　内水面研究所,青森県,十和田市,西六番町,40.592896,141.222451,18987.451272912716,6041711722,False
近畿医療福祉大学,兵庫県,福崎町,田口田口,34.979228,134.738912,19043.243202521848,5234357931,False
近畿医療福祉大学　社会福祉学部,兵庫県,福崎町,田口田口,34.979228,134.738912,19043.243202521848,5234357931,False
正眼短期大学,岐阜県,富加町,加治田,35.504998,137.004609,19103.24420549057,5337200032,False
正眼短期大学　禅・人間学科,岐阜県,富加町,加治田,35.504998,137.004609,19103.24420549057,5337200032,False
東京海洋大学　水圏科学フィールド教育研究センター　東京湾臨海フィールド　富浦ステーション,千葉県,南房総市,富浦町多田良,35.037367,139.826296,19155.916823304335,5239464613,False
環太平洋大学,岡山県,岡山市東区,瀬戸町観音寺,34.729207,134.011175,19171.88809332154,,False
富山県工業技術センター　生活工学研究所,富山県,南砺市,野尻,36.6094,136.915676,19215.791067627397,,False
地方独立行政法人北海道立総合研究機構　水産研究本部　網走水産試験場　加工利用部,北海道,紋別市,港町七丁目,44.348439,143.359246,19344.943579786377,6643421843,False
岐阜県林政部　森林研究所,岐阜県,美濃市,曽代,35.553427,136.920193,19382.067697571012,,False
熊本県保健環境科学研究所,熊本県,宇土市,栗崎町,32.666307,130.653136,19413.224731086553,4830759234,False
弘前大学　農学生命科学部　附属生物共生教育研究センター　藤崎農場,青森県,藤崎町,大字藤崎,40.656133,140.484857,19549.762503371934,,False
地方独立行政法人北海道立総合研究機構　水産研究本部　栽培水産試験場,北海道,室蘭市,舟見町一丁目,42.309407,140.967335,19571.29078075061,6340377712,False
高知県農業振興部　農業技術センター,高知県,南国市,廿枝,33.591835,133.645202,19705.942647151463,5033351121,False
高知大学　医学部,高知県,南国市,岡豊町小蓮,33.595251,133.614412,19728.15263454496,5033341913,False
高知大学　医学部　附属病院,高知県,南国市,岡豊町小蓮,33.595251,133.614412,19728.15263454496,5033341913,False
高知大学　医学部　附属医学情報センター,高知県,南国市,岡豊町小蓮,33.595251,133.614412,19728.15263454496,5033341913,False
高知大学　総合情報センター　図書館　医学部分館,高知県,南国市,岡豊町小蓮,33.595251,133.614412,19728.15263454496,5033341913,False
高知大学　保健管理センター　医学部分室,高知県,南国市,岡豊町小蓮,33.595251,133.614412,19728.15263454496,5033341913,False
高知大学　総合研究センター　生命・機能物質部門　実験実習機器施設,高知県,南国市,岡豊町小蓮,33.595251,133.614412,19728.15263454496,5033341913,False
高知大学　総合研究センター　生命・機能物質部門　ＲＩ実験施設,高知県,南国市,岡豊町小蓮,33.595251,133.614412,19728.15263454496,5033341913,False
高知大学　総合研究センター　生命・機能物質部門　動物実験施設,高知県,南国市,岡豊町小蓮,33.595251,133.614412,19728.15263454496,5033341913,False
高知大学　教育研究部　医療学系　基礎医学部門,高知県,南国市,岡豊町小蓮,33.595251,133.614412,19728.15263454496,5033341913,False
高知大学　教育研究部　医療学系　連携医学部門,高知県,南国市,岡豊町小蓮,33.595251,133.614412,19728.15263454496,5033341913,False
高知大学　教育研究部　医療学系　臨床医学部門,高知県,南国市,岡豊町小蓮,33.595251,133.614412,19728.15263454496,5033341913,False
高知大学　教育研究部　医療学系　医学教育部門,高知県,南国市,岡豊町小蓮,33.595251,133.614412,19728.15263454496,5033341913,False
高知大学　教育研究部　医療学系　看護学部門,高知県,南国市,岡豊町小蓮,33.595251,133.614412,19728.15263454496,5033341913,False
高知大学　大学院　総合人間自然科学研究科,高知県,南国市,岡豊町小蓮,33.595251,133.614412,19728.15263454496,5033341913,False
保健医療経営大学,福岡県,みやま市,瀬高町高柳,33.141001,130.459501,19747.26449088325,4930536644,False
岩手大学　農学部　附属寒冷フィールドサイエンス教育研究センター　都市近郊フィールドステーション　滝沢演習林,岩手県,滝沢市,妻の神,39.793337,141.149769,19768.961718789422,,False
石川県商工労働部　工業試験場　九谷焼技術センター,石川県,小松市,正蓮寺町,36.388141,136.496222,19829.973701609266,5436436941,False
稚内北星学園大学,北海道,稚内市,若葉台一丁目,45.382796,141.718751,19869.721705427193,,False
岩手大学　農学部　附属寒冷フィールドサイエンス教育研究センター　都市近郊フィールドステーション　滝沢農場,岩手県,滝沢市,巣子,39.782025,141.127743,19941.916439110944,,False
山形県農業総合研究センター　水田農業試験場,山形県,鶴岡市,藤島字山ノ前,38.764428,139.903335,19948.273798792554,,False
地方独立行政法人大阪府立環境農林水産総合研究所　水産技術センター,大阪府,岬町,多奈川谷川,34.32233,135.120487,19948.837163779688,5135308941,False
釧路工業高等専門学校,北海道,釧路市,大楽毛,43.015993,144.261588,19955.547053751736,6444421044,False
釧路工業高等専門学校　機械工学科,北海道,釧路市,大楽毛,43.015993,144.261588,19955.547053751736,6444421044,False
釧路工業高等専門学校　電気工学科,北海道,釧路市,大楽毛,43.015993,144.261588,19955.547053751736,6444421044,False
釧路工業高等専門学校　電子工学科,北海道,釧路市,大楽毛,43.015993,144.261588,19955.547053751736,6444421044,False
釧路工業高等専門学校　情報工学科,北海道,釧路市,大楽毛,43.015993,144.261588,19955.547053751736,6444421044,False
釧路工業高等専門学校　建築学科,北海道,釧路市,大楽毛,43.015993,144.261588,19955.547053751736,6444421044,False
釧路工業高等専門学校　専攻科,北海道,釧路市,大楽毛,43.015993,144.261588,19955.547053751736,6444421044,False
釧路工業高等専門学校　図書館,北海道,釧路市,大楽毛,43.015993,144.261588,19955.547053751736,6444421044,False
釧路工業高等専門学校　地域共同テクノセンター,北海道,釧路市,大楽毛,43.015993,144.261588,19955.547053751736,6444421044,False
釧路工業高等専門学校　情報処理センター,北海道,釧路市,大楽毛,43.015993,144.261588,19955.547053751736,6444421044,False
釧路工業高等専門学校　教育研究支援センター,北海道,釧路市,大楽毛,43.015993,144.261588,19955.547053751736,6444421044,False
静岡県経済産業部　畜産技術研究所　中小家畜研究センター,静岡県,菊川市,西方堀田,34.759005,138.066182,19969.82978116293,,False
熊本県農業研究センター　い業研究所,熊本県,八代市,鏡町下村,32.559419,130.65621,20083.776564474676,4830657212,False
長崎純心大学,長崎県,長崎市,三ツ山町,32.798483,129.911423,20169.763635738895,4929175244,False
長崎純心大学　人文学部,長崎県,長崎市,三ツ山町,32.798483,129.911423,20169.763635738895,4929175244,False
長崎純心大学　大学院　人間文化研究科,長崎県,長崎市,三ツ山町,32.798483,129.911423,20169.763635738895,4929175244,False
千葉県農林水産部　水産総合研究センター　銚子分室,千葉県,銚子市,川口町二丁目,35.740967,140.862506,20191.155075816554,5340468933,False
財団法人天野工業技術研究所,静岡県,浜松市北区,細江町気賀,34.811478,137.639573,20199.548706618953,5237157113,False
福井県安全環境部　原子力環境監視センター,福井県,敦賀市,吉河,35.633841,136.082169,20278.952513959863,5336306621,False
公益財団法人福井原子力センター,福井県,敦賀市,吉河,35.634218,136.082002,20278.952513959863,5336306621,False
静岡理工科大学,静岡県,袋井市,愛野,34.738314,137.961179,20313.59567161961,,False
静岡理工科大学　理工学部,静岡県,袋井市,愛野,34.738314,137.961179,20313.59567161961,,False
静岡理工科大学　総合情報学部,静岡県,袋井市,愛野,34.738314,137.961179,20313.59567161961,,False
静岡理工科大学　大学院　理工学研究科,静岡県,袋井市,愛野,34.738314,137.961179,20313.59567161961,,False
静岡理工科大学　先端機器分析センター,静岡県,袋井市,愛野,34.738314,137.961179,20313.59567161961,,False
静岡理工科大学　情報センター,静岡県,袋井市,愛野,34.738314,137.961179,20313.59567161961,,False
静岡理工科大学　工作センター,静岡県,袋井市,愛野,34.738314,137.961179,20313.59567161961,,False
静岡理工科大学　総合技術研究所,静岡県,袋井市,愛野,34.738314,137.961179,20313.59567161961,,False
静岡理工科大学　附属図書館,静岡県,袋井市,愛野,34.738314,137.961179,20313.59567161961,,False
静岡理工科大学　教育開発センター,静岡県,袋井市,愛野,34.738314,137.961179,20313.59567161961,,False
鳥羽商船高等専門学校,三重県,鳥羽市,池上町,34.482556,136.825407,20338.509305641775,,False
鳥羽商船高等専門学校　商船学科,三重県,鳥羽市,池上町,34.482556,136.825407,20338.509305641775,,False
鳥羽商船高等専門学校　電子機械工学科,三重県,鳥羽市,池上町,34.482556,136.825407,20338.509305641775,,False
鳥羽商船高等専門学校　制御情報工学科,三重県,鳥羽市,池上町,34.482556,136.825407,20338.509305641775,,False
鳥羽商船高等専門学校　図書館,三重県,鳥羽市,池上町,34.482556,136.825407,20338.509305641775,,False
鳥羽商船高等専門学校　総合情報センター,三重県,鳥羽市,池上町,34.482556,136.825407,20338.509305641775,,False
鳥羽商船高等専門学校　練習船,三重県,鳥羽市,池上町,34.482556,136.825407,20338.509305641775,,False
財団法人動物繁殖研究所,茨城県,かすみがうら市,深谷,36.089797,140.287808,20361.222150645855,,False
京都大学　フィールド科学教育研究センター　徳山試験地,山口県,周南市,大字徳山字上一ノ井手,34.066667,131.835165,20397.840871681707,,False
舞鶴工業高等専門学校,京都府,舞鶴市,朝来白屋,35.496167,135.439764,20406.692168599282,,False
舞鶴工業高等専門学校　機械工学科,京都府,舞鶴市,朝来白屋,35.496167,135.439764,20406.692168599282,,False
舞鶴工業高等専門学校　電気情報工学科,京都府,舞鶴市,朝来白屋,35.496167,135.439764,20406.692168599282,,False
舞鶴工業高等専門学校　電子制御工学科,京都府,舞鶴市,朝来白屋,35.496167,135.439764,20406.692168599282,,False
舞鶴工業高等専門学校　建設システム工学科,京都府,舞鶴市,朝来白屋,35.496167,135.439764,20406.692168599282,,False
舞鶴工業高等専門学校　専攻科　電気・制御システム工学専攻,京都府,舞鶴市,朝来白屋,35.496167,135.439764,20406.692168599282,,False
舞鶴工業高等専門学校　専攻科　建設・生産システム工学専攻,京都府,舞鶴市,朝来白屋,35.496167,135.439764,20406.692168599282,,False
舞鶴工業高等専門学校　図書館,京都府,舞鶴市,朝来白屋,35.496167,135.439764,20406.692168599282,,False
舞鶴工業高等専門学校　情報科学センター,京都府,舞鶴市,朝来白屋,35.496167,135.439764,20406.692168599282,,False
舞鶴工業高等専門学校　地域共同テクノセンター,京都府,舞鶴市,朝来白屋,35.496167,135.439764,20406.692168599282,,False
舞鶴工業高等専門学校　教育研究支援センター,京都府,舞鶴市,朝来白屋,35.496167,135.439764,20406.692168599282,,False
北陸先端科学技術大学院大学,石川県,能美市,旭台,36.444375,136.592493,20408.72541096471,5436543714,False
北陸先端科学技術大学院大学　知識科学研究科,石川県,能美市,旭台,36.444375,136.592493,20408.72541096471,5436543714,False
北陸先端科学技術大学院大学　情報科学研究科,石川県,能美市,旭台,36.444375,136.592493,20408.72541096471,5436543714,False
北陸先端科学技術大学院大学　マテリアルサイエンス研究科,石川県,能美市,旭台,36.444375,136.592493,20408.72541096471,5436543714,False
北陸先端科学技術大学院大学　情報社会基盤研究センター,石川県,能美市,旭台,36.444375,136.592493,20408.72541096471,5436543714,False
北陸先端科学技術大学院大学　ナノマテリアルテクノロジーセンター,石川県,能美市,旭台,36.444375,136.592493,20408.72541096471,5436543714,False
北陸先端科学技術大学院大学　産学官連携総合推進センター,石川県,能美市,旭台,36.444375,136.592493,20408.72541096471,5436543714,False
北陸先端科学技術大学院大学　保健管理センター,石川県,能美市,旭台,36.444375,136.592493,20408.72541096471,5436543714,False
北陸先端科学技術大学院大学　安心電子社会教育研究センター,石川県,能美市,旭台,36.444375,136.592493,20408.72541096471,5436543714,False
北陸先端科学技術大学院大学　附属図書館,石川県,能美市,旭台,36.444375,136.592493,20408.72541096471,5436543714,False
北陸先端科学技術大学院大学　ライフスタイルデザイン研究センター,石川県,能美市,旭台,36.444375,136.592493,20408.72541096471,5436543714,False
独立行政法人日本原子力研究開発機構　那珂核融合研究所,茨城県,那珂市,向山,36.474571,140.535227,20427.687374354926,,False
修紅短期大学,岩手県,一関市,萩荘字下中田,38.913458,141.109569,20537.16218630414,,False
修紅短期大学　幼児教育学科,岩手県,一関市,萩荘字下中田,38.913458,141.109569,20537.16218630414,,False
修紅短期大学　食物栄養学科,岩手県,一関市,萩荘字下中田,38.913458,141.109569,20537.16218630414,,False
修紅短期大学　図書館,岩手県,一関市,萩荘字下中田,38.913458,141.109569,20537.16218630414,,False
富山県農林水産総合技術センター　水産研究所,富山県,滑川市,坪川新,36.778447,137.348684,20538.125840612374,5537123724,False
栃木県農政部　畜産酪農研究センター　芳賀分場,栃木県,芳賀町,大字祖母井,36.543307,140.073682,20551.503986886768,5440605522,False
香川県立保健医療大学,香川県,高松市,牟礼町原,34.32198,134.158408,20558.222393846463,5134318241,False
香川県立保健医療大学　保健医療学部,香川県,高松市,牟礼町原,34.32198,134.158408,20558.222393846463,5134318241,False
香川県立保健医療大学　図書館,香川県,高松市,牟礼町原,34.32198,134.158408,20558.222393846463,5134318241,False
独立行政法人家畜改良センター,福島県,西郷村,大字真船,37.12152,140.157372,20579.417802447457,,False
独立行政法人水産大学校,山口県,下関市,永田本町二丁目,34.069795,130.893691,20628.719979334466,,False
近畿大学　農学部　附属農場,和歌山県,有田川町,大字熊井,34.04024,135.194534,20650.020668936526,5135014543,False
大分県農林水産研究指導センター　林業研究部,大分県,日田市,大字北豆田,33.331353,130.952132,20671.54544967327,4930779633,False
長崎県工業技術センター,長崎県,大村市,池田,32.938017,129.974505,20691.337207614924,,False
新潟リハビリテーション大学,新潟県,村上市,上の山,38.185792,139.440171,20716.004909881674,5739232513,False
兵庫教育大学　大学院　連合学校教育学研究科,兵庫県,加東市,下久米,34.912252,135.015147,20737.154528927753,,False
兵庫教育大学　附属図書館,兵庫県,加東市,下久米,34.912252,135.015147,20737.154528927753,,False
兵庫教育大学　教材文化資料館,兵庫県,加東市,下久米,34.912252,135.015147,20737.154528927753,,False
兵庫教育大学　保健管理センター,兵庫県,加東市,下久米,34.912252,135.015147,20737.154528927753,,False
兵庫教育大学　実技教育研究指導センター,兵庫県,加東市,下久米,34.912252,135.015147,20737.154528927753,,False
兵庫教育大学　発達心理臨床研究センター,兵庫県,加東市,下久米,34.912252,135.015147,20737.154528927753,,False
兵庫教育大学　情報処理センター,兵庫県,加東市,下久米,34.912252,135.015147,20737.154528927753,,False
兵庫教育大学　地域交流推進センター,兵庫県,加東市,下久米,34.912252,135.015147,20737.154528927753,,False
兵庫教育大学　教職大学院研究・連携推進センター,兵庫県,加東市,下久米,34.912252,135.015147,20737.154528927753,,False
兵庫教育大学,兵庫県,加東市,下久米,34.912252,135.015147,20737.154528927753,,False
兵庫教育大学　学校教育学部,兵庫県,加東市,下久米,34.912252,135.015147,20737.154528927753,,False
兵庫教育大学　大学院　学校教育研究科,兵庫県,加東市,下久米,34.912252,135.015147,20737.154528927753,,False
佐賀県農林水産商工本部　玄海水産振興センター,佐賀県,唐津市,唐房五丁目,33.483433,129.940613,20832.112616788392,5029178511,False
独立行政法人農業・食品産業技術総合研究機構　東北農業研究センター,岩手県,盛岡市,下厨川字鍋屋敷,39.763918,141.133981,20867.078680758583,5941511041,False
群馬県農業技術センター　こんにゃく特産研究センター,群馬県,渋川市,石原西,36.493651,138.980467,20936.54333142405,,False
佐賀大学　農学部　附属資源循環フィールド科学教育研究センター,佐賀県,佐賀市,久保泉町大字下和泉,33.308599,130.334718,20975.483084985444,4930727622,False
岐阜県農政部　農業技術センター　池田試験地,岐阜県,池田町,段,35.461279,136.544402,21003.99407953159,5336145323,False
岐阜県商工労働部　産業技術センター　紙業部,岐阜県,美濃市,港町,35.55553,136.910215,21058.249161829575,5336276242,False
公立はこだて未来大学,北海道,函館市,赤川町,41.841895,140.768065,21093.161767312096,,False
山梨県森林環境部　森林総合研究所,山梨県,富士川町,最勝寺,35.559626,138.446928,21138.588397569943,5338237522,False
気象庁　地磁気観測所,茨城県,石岡市,柿岡,36.234134,140.189382,21182.517641912273,5440218511,False
福島県ハイテクプラザ　福島技術支援センター,福島県,福島市,佐倉下,37.740211,140.403984,21189.10558832494,5640438234,False
地方独立行政法人山口県産業技術センター,山口県,宇部市,あすとぴあ四丁目,33.983621,131.29788,21277.163119514236,,False
岡山県立大学,岡山県,総社市,窪木,34.692613,133.78082,21456.112583211583,,False
岡山県立大学　保健福祉学部,岡山県,総社市,窪木,34.692613,133.78082,21456.112583211583,,False
岡山県立大学　情報工学部,岡山県,総社市,窪木,34.692613,133.78082,21456.112583211583,,False
岡山県立大学　デザイン学部,岡山県,総社市,窪木,34.692613,133.78082,21456.112583211583,,False
岡山県立大学　大学院　保健福祉学研究科,岡山県,総社市,窪木,34.692613,133.78082,21456.112583211583,,False
岡山県立大学　大学院　情報系工学研究科,岡山県,総社市,窪木,34.692613,133.78082,21456.112583211583,,False
岡山県立大学　大学院　デザイン学研究科,岡山県,総社市,窪木,34.692613,133.78082,21456.112583211583,,False
地方独立行政法人青森県産業技術センター　農林部門　りんご研究所,青森県,黒石市,柵ノ木三丁目,40.637294,140.615137,21494.397201018313,6040746913,False
群馬県立自然史博物館,群馬県,富岡市,黒川,36.269534,138.867302,21503.40419829692,,False
鹿児島大学　農学部　附属農場　指宿植物試験場,鹿児島県,指宿市,十町,31.251268,130.638255,21512.406280795418,4630750111,False
長野県水産試験場,長野県,安曇野市,明科中川手上町,36.35315,137.925163,21558.45173089748,5437472413,False
敦賀短期大学,福井県,敦賀市,櫛川,35.646213,136.034521,21586.644961350674,,False
敦賀短期大学　地域総合科学科,福井県,敦賀市,櫛川,35.646213,136.034521,21586.644961350674,,False
敦賀短期大学　図書館,福井県,敦賀市,櫛川,35.646213,136.034521,21586.644961350674,,False
敦賀短期大学　地域交流センター,福井県,敦賀市,櫛川,35.646213,136.034521,21586.644961350674,,False
財団法人応用生化学研究所,岐阜県,御嵩町,御嵩,35.421546,137.145359,21632.188311841346,,False
帯広畜産大学,北海道,帯広市,稲田町南八線西,42.873751,143.173749,21652.024482594683,,False
帯広畜産大学　研究域　畜産衛生学研究部門,北海道,帯広市,稲田町南八線西,42.873751,143.173749,21652.024482594683,,False
帯広畜産大学　研究域　臨床獣医学研究部門,北海道,帯広市,稲田町南八線西,42.873751,143.173749,21652.024482594683,,False
帯広畜産大学　研究域　基礎獣医学研究部門,北海道,帯広市,稲田町南八線西,42.873751,143.173749,21652.024482594683,,False
帯広畜産大学　研究域　畜産生命科学研究部門,北海道,帯広市,稲田町南八線西,42.873751,143.173749,21652.024482594683,,False
帯広畜産大学　研究域　食品科学研究部門,北海道,帯広市,稲田町南八線西,42.873751,143.173749,21652.024482594683,,False
帯広畜産大学　研究域　域環境学研究部門,北海道,帯広市,稲田町南八線西,42.873751,143.173749,21652.024482594683,,False
帯広畜産大学　研究域　人間科学研究部門,北海道,帯広市,稲田町南八線西,42.873751,143.173749,21652.024482594683,,False
帯広畜産大学　別科,北海道,帯広市,稲田町南八線西,42.873751,143.173749,21652.024482594683,,False
帯広畜産大学　附属図書館,北海道,帯広市,稲田町南八線西,42.873751,143.173749,21652.024482594683,,False
帯広畜産大学　地域連携推進センター,北海道,帯広市,稲田町南八線西,42.873751,143.173749,21652.024482594683,,False
帯広畜産大学　保健管理センター,北海道,帯広市,稲田町南八線西,42.873751,143.173749,21652.024482594683,,False
帯広畜産大学　畜産フィールド科学センター,北海道,帯広市,稲田町南八線西,42.873751,143.173749,21652.024482594683,,False
帯広畜産大学　動物・食品衛生研究センター,北海道,帯広市,稲田町南八線西,42.873751,143.173749,21652.024482594683,,False
帯広畜産大学　情報処理センター,北海道,帯広市,稲田町南八線西,42.873751,143.173749,21652.024482594683,,False
帯広畜産大学　放射性同位元素実験室,北海道,帯広市,稲田町南八線西,42.873751,143.173749,21652.024482594683,,False
帯広畜産大学　動物医療センター,北海道,帯広市,稲田町南八線西,42.873751,143.173749,21652.024482594683,,False
帯広畜産大学　原虫病研究センター,北海道,帯広市,稲田町南八線西,42.873751,143.173749,21652.024482594683,,False
長野県野菜花き試験場,長野県,長野市,松代町大室,36.58533,138.22041,21652.390912206833,,False
山梨県産業労働部　山梨県工業技術センター　ワインセンター,山梨県,甲州市,勝沼,35.659338,138.732934,21711.900737345197,5338359821,False
独立行政法人日本原子力研究開発機構　敦賀本部,福井県,敦賀市,櫛川,35.644641,136.036507,21751.715532013415,5336307224,False
鶴岡工業高等専門学校,山形県,鶴岡市,高坂字村西,38.709834,139.797478,21904.251399621455,5839065322,False
鶴岡工業高等専門学校　機械工学科,山形県,鶴岡市,高坂字村西,38.709834,139.797478,21904.251399621455,5839065322,False
鶴岡工業高等専門学校　電気電子工学科,山形県,鶴岡市,高坂字村西,38.709834,139.797478,21904.251399621455,5839065322,False
鶴岡工業高等専門学校　制御情報工学科,山形県,鶴岡市,高坂字村西,38.709834,139.797478,21904.251399621455,5839065322,False
鶴岡工業高等専門学校　物質工学科,山形県,鶴岡市,高坂字村西,38.709834,139.797478,21904.251399621455,5839065322,False
鶴岡工業高等専門学校　総合科学科,山形県,鶴岡市,高坂字村西,38.709834,139.797478,21904.251399621455,5839065322,False
鶴岡工業高等専門学校　専攻科,山形県,鶴岡市,高坂字村西,38.709834,139.797478,21904.251399621455,5839065322,False
鶴岡工業高等専門学校　地域共同テクノセンター,山形県,鶴岡市,高坂字村西,38.709834,139.797478,21904.251399621455,5839065322,False
鶴岡工業高等専門学校　図書メディアセンター,山形県,鶴岡市,高坂字村西,38.709834,139.797478,21904.251399621455,5839065322,False
鶴岡工業高等専門学校　総合情報センター,山形県,鶴岡市,高坂字村西,38.709834,139.797478,21904.251399621455,5839065322,False
茨城県水産試験場,茨城県,ひたちなか市,平磯町,36.364416,140.620836,21939.88159316991,5440443941,False
近畿大学　工学部,広島県,東広島市,高屋うめの辺,34.459862,132.780299,22005.791473371624,,False
近畿大学　工学部　教育推進センター,広島県,東広島市,高屋うめの辺,34.459862,132.780299,22005.791473371624,,False
近畿大学　大学院　システム工学研究科,広島県,東広島市,高屋うめの辺,34.459862,132.780299,22005.791473371624,,False
近畿大学　次世代基盤技術研究所,広島県,東広島市,高屋うめの辺,34.459862,132.780299,22005.791473371624,,False
奈良県農林部　畜産技術センター,奈良県,宇陀市,大宇陀下竹,34.488457,135.932153,22015.900915201193,5135578441,False
島根県産業技術センター,島根県,松江市,北陵町,35.499539,133.062452,22018.150117397523,,False
公益財団法人しまね産業振興財団,島根県,松江市,北陵町,35.499539,133.062452,22018.150117397523,,False
公益財団法人しまね産業振興財団　技術支援課,島根県,松江市,北陵町,35.499539,133.062452,22018.150117397523,,False
長野県看護大学,長野県,駒ヶ根市,赤穂上穂町,35.74599,137.933563,22054.821335529225,5337479441,False
福山大学,広島県,尾道市,西藤町,34.458275,133.230322,22063.72616130661,5133514834,False
福山大学　経済学部,広島県,尾道市,西藤町,34.458275,133.230322,22063.72616130661,5133514834,False
福山大学　人間文化学部,広島県,尾道市,西藤町,34.458275,133.230322,22063.72616130661,5133514834,False
福山大学　工学部,広島県,尾道市,西藤町,34.458275,133.230322,22063.72616130661,5133514834,False
福山大学　生命工学部,広島県,尾道市,西藤町,34.458275,133.230322,22063.72616130661,5133514834,False
福山大学　薬学部,広島県,尾道市,西藤町,34.458275,133.230322,22063.72616130661,5133514834,False
福山大学　大学院　経済学研究科,広島県,尾道市,西藤町,34.458275,133.230322,22063.72616130661,5133514834,False
福山大学　大学院　人間科学研究科,広島県,尾道市,西藤町,34.458275,133.230322,22063.72616130661,5133514834,False
福山大学　大学院　工学研究科,広島県,尾道市,西藤町,34.458275,133.230322,22063.72616130661,5133514834,False
福山大学　大学院　薬学研究科,広島県,尾道市,西藤町,34.458275,133.230322,22063.72616130661,5133514834,False
福山大学　情報処理センター,広島県,尾道市,西藤町,34.458275,133.230322,22063.72616130661,5133514834,False
福山大学　附属図書館,広島県,尾道市,西藤町,34.458275,133.230322,22063.72616130661,5133514834,False
福山大学　ＲＩセンター,広島県,尾道市,西藤町,34.458275,133.230322,22063.72616130661,5133514834,False
福山大学　北京教育研究センター,広島県,尾道市,西藤町,34.458275,133.230322,22063.72616130661,5133514834,False
福山大学　社会連携研究推進センター,広島県,尾道市,西藤町,34.458275,133.230322,22063.72616130661,5133514834,False
福山大学　構造・材料開発研究センター,広島県,尾道市,西藤町,34.458275,133.230322,22063.72616130661,5133514834,False
福山大学　グリーンサイエンス研究センター,広島県,尾道市,西藤町,34.458275,133.230322,22063.72616130661,5133514834,False
長野県南信農業試験場,長野県,高森町,上市田,35.550165,137.868698,22100.22285298532,5337266912,False
国際医療福祉大学,栃木県,大田原市,北金丸,36.870519,140.069693,22120.998253201207,,False
国際医療福祉大学　薬学部,栃木県,大田原市,北金丸,36.870519,140.069693,22120.998253201207,,False
国際医療福祉大学　医療福祉学部,栃木県,大田原市,北金丸,36.870519,140.069693,22120.998253201207,,False
国際医療福祉大学　保健医療学部,栃木県,大田原市,北金丸,36.870519,140.069693,22120.998253201207,,False
国際医療福祉大学　大学院　薬科学研究科,栃木県,大田原市,北金丸,36.870519,140.069693,22120.998253201207,,False
国際医療福祉大学　大学院　医療福祉学研究科,栃木県,大田原市,北金丸,36.870519,140.069693,22120.998253201207,,False
富山県農林水産総合技術センター,富山県,富山市,千俵町,36.626956,137.236678,22194.472426204604,5437715822,False
富山県農林水産総合技術センター　企画管理部,富山県,富山市,千俵町,36.626956,137.236678,22194.472426204604,5437715822,False
富山県農林水産総合技術センター　農業研究所,富山県,富山市,千俵町,36.626956,137.236678,22194.472426204604,5437715822,False
福島県立医科大学,福島県,福島市,光が丘,37.689408,140.469404,22201.58763398036,,False
福島県立医科大学　医学部,福島県,福島市,光が丘,37.689408,140.469404,22201.58763398036,,False
福島県立医科大学　医学部　附属生体情報伝達研究所,福島県,福島市,光が丘,37.689408,140.469404,22201.58763398036,,False
福島県立医科大学　医学部　附属実験動物研究施設,福島県,福島市,光が丘,37.689408,140.469404,22201.58763398036,,False
福島県立医科大学　医学部　附属放射性同位元素研究施設,福島県,福島市,光が丘,37.689408,140.469404,22201.58763398036,,False
福島県立医科大学　医学部　附属リハビリテーション研究所,福島県,福島市,光が丘,37.689408,140.469404,22201.58763398036,,False
福島県立医科大学　看護学部,福島県,福島市,光が丘,37.689408,140.469404,22201.58763398036,,False
福島県立医科大学　附属病院,福島県,福島市,光が丘,37.689408,140.469404,22201.58763398036,,False
岩手県立大学　宮古短期大学部,岩手県,宮古市,河南,39.618956,141.950857,22219.570762268577,5941374613,False
岩手県立大学　宮古短期大学部　経営情報学科,岩手県,宮古市,河南,39.618956,141.950857,22219.570762268577,5941374613,False
長浜バイオ大学,滋賀県,長浜市,田村町,35.35567,136.280701,22220.498440839885,,False
長浜バイオ大学　バイオサイエンス学部,滋賀県,長浜市,田村町,35.35567,136.280701,22220.498440839885,,False
国際武道大学,千葉県,勝浦市,新官,35.160757,140.321174,22254.745882556566,5240529523,False
国際武道大学　体育学部,千葉県,勝浦市,新官,35.160757,140.321174,22254.745882556566,5240529523,False
国際武道大学　大学院　武道・スポーツ研究科,千葉県,勝浦市,新官,35.160757,140.321174,22254.745882556566,5240529523,False
栃木県産業技術センター　窯業技術支援センター,栃木県,益子町,城内坂,36.464094,140.107381,22269.187017778575,5440505841,False
群馬県畜産試験場,群馬県,前橋市,富士見町皆沢,36.465498,139.107867,22370.47120758339,,False
独立行政法人国立病院機構　三重病院　臨床研究部,三重県,津市,大里窪田町,34.770123,136.479373,22392.728054582414,5236132814,False
九州工業大学　エコタウン実証研究センター,福岡県,北九州市若松区,響南町,33.927453,130.797423,22405.375662532937,,False
日本独立行政法人日本原子力研究開発機構原子力研究開発機構,茨城県,東海村,大字村松箕輪,36.442686,140.595869,22511.308193717705,5440543721,False
独立行政法人日本原子力研究開発機構　東海研究開発センター　核燃料サイクル工学研究所,茨城県,東海村,大字村松箕輪,36.443077,140.596458,22511.308193717705,5440543721,False
独立行政法人日本原子力研究開発機構,茨城県,東海村,大字村松箕輪,36.442691,140.59593,22511.308193717705,5440543721,False
広島大学　高等教育研究開発センター,広島県,東広島市,鏡山一丁目,34.398159,132.713023,22530.444000499294,,False
広島大学　ハラスメント相談室,広島県,東広島市,鏡山一丁目,34.398159,132.713023,22530.444000499294,,False
広島大学　図書館,広島県,東広島市,鏡山一丁目,34.398159,132.713023,22530.444000499294,,False
広島大学,広島県,東広島市,鏡山一丁目,34.398159,132.713023,22530.444000499294,,False
広島大学　産学・地域連携センター,広島県,東広島市,鏡山一丁目,34.398159,132.713023,22530.444000499294,,False
広島大学　国際センター,広島県,東広島市,鏡山一丁目,34.398159,132.713023,22530.444000499294,,False
広島大学　自然科学研究支援開発センター,広島県,東広島市,鏡山一丁目,34.398159,132.713023,22530.444000499294,,False
広島大学　情報メディア教育研究センター,広島県,東広島市,鏡山一丁目,34.398159,132.713023,22530.444000499294,,False
広島大学　ナノデバイス・バイオ融合科学研究所,広島県,東広島市,鏡山一丁目,34.398159,132.713023,22530.444000499294,,False
広島大学　大学院　理学研究科　附属植物遺伝子保管実験施設,広島県,東広島市,鏡山一丁目,34.398159,132.713023,22530.444000499294,,False
広島大学　図書館,広島県,東広島市,鏡山一丁目,34.398159,132.713023,22530.444000499294,,False
広島大学　大学院　国際協力研究科,広島県,東広島市,鏡山一丁目,34.398159,132.713023,22530.444000499294,,False
広島大学　教育開発国際協力研究センター,広島県,東広島市,鏡山一丁目,34.398159,132.713023,22530.444000499294,,False
広島大学　環境安全センター,広島県,東広島市,鏡山一丁目,34.398159,132.713023,22530.444000499294,,False
広島大学　図書館,広島県,東広島市,鏡山一丁目,34.398159,132.713023,22530.444000499294,,False
独立行政法人国立病院機構　長崎川棚医療センター　臨床研究部,長崎県,川棚町,下組郷,33.069443,129.856145,22734.632131104987,4929468814,False
島根大学　産学連携センター,島根県,松江市,北陵町,35.499125,133.062221,22780.148917153947,,False
東京都島しょ農林水産総合センター　奥多摩さかな養殖センター,東京都,奥多摩町,小丹波,35.821821,139.142189,22795.87926211324,5339518132,False
山梨県農政部　水産技術センター,山梨県,忍野村,忍草,35.455584,138.824008,22817.599867260233,5338164542,False
近畿大学　生物理工学部,和歌山県,紀の川市,大字中三谷,34.287602,135.337406,22861.989361072458,,False
近畿大学　大学院　生物理工学研究科,和歌山県,紀の川市,大字中三谷,34.287602,135.337406,22861.989361072458,,False
道都大学,北海道,北広島市,輝美町,42.9795,141.542735,22970.534000054387,,False
道都大学　社会福祉学部,北海道,北広島市,輝美町,42.9795,141.542735,22970.534000054387,,False
道都大学　経営学部,北海道,北広島市,輝美町,42.9795,141.542735,22970.534000054387,,False
道都大学　美術学部,北海道,北広島市,輝美町,42.9795,141.542735,22970.534000054387,,False
道都大学　国際福祉研究所,北海道,北広島市,輝美町,42.9795,141.542735,22970.534000054387,,False
道都大学　国際意匠研究所,北海道,北広島市,輝美町,42.9795,141.542735,22970.534000054387,,False
道都大学　国際建築研究所,北海道,北広島市,輝美町,42.9795,141.542735,22970.534000054387,,False
道都大学　国際経営文化研究所,北海道,北広島市,輝美町,42.9795,141.542735,22970.534000054387,,False
石川県立看護大学,石川県,かほく市,学園台一丁目,36.780155,136.733697,22972.607425802154,5536153841,False
信州大学　農学部,長野県,伊那市,西箕輪大萱,35.865008,137.934539,22987.81253646017,5337673444,False
信州大学　農学部　附属アルプス圏フィールド科学教育研究センター　構内ステーション,長野県,伊那市,西箕輪大萱,35.865008,137.934539,22987.81253646017,5337673444,False
信州大学　大学院　農学研究科,長野県,伊那市,西箕輪大萱,35.865008,137.934539,22987.81253646017,5337673444,False
金沢工業大学　人間情報システム研究所,石川県,白山市,八束穂,36.484672,136.571623,23014.98466536414,,False
金沢工業大学　高度材料科学研究開発センター,石川県,白山市,八束穂,36.484672,136.571623,23014.98466536414,,False
金沢工業大学　材料システム研究所,石川県,白山市,八束穂,36.484672,136.571623,23014.98466536414,,False
金沢工業大学　生活環境研究所,石川県,白山市,八束穂,36.484672,136.571623,23014.98466536414,,False
金沢工業大学　ゲノム生物工学研究所,石川県,白山市,八束穂,36.484672,136.571623,23014.98466536414,,False
金沢工業大学　ものづくり研究所,石川県,白山市,八束穂,36.484672,136.571623,23014.98466536414,,False
金沢工業大学　情報技術研究所,石川県,白山市,八束穂,36.484672,136.571623,23014.98466536414,,False
金沢工業大学　感動デザイン工学研究所,石川県,白山市,八束穂,36.484672,136.571623,23014.98466536414,,False
金沢工業大学　情報マネジメント研究所,石川県,白山市,八束穂,36.484672,136.571623,23014.98466536414,,False
金沢工業大学　地域防災環境科学研究所,石川県,白山市,八束穂,36.484672,136.571623,23014.98466536414,,False
金沢工業大学　ＦＭＴ研究所,石川県,白山市,八束穂,36.484672,136.571623,23014.98466536414,,False
金沢工業大学　生体機構制御技術研究所,石川県,白山市,八束穂,36.484672,136.571623,23014.98466536414,,False
茨城県畜産センター　養豚研究所,茨城県,稲敷市,佐倉,35.97439,140.319769,23032.027645574242,5340726543,False
富山大学　医学部,富山県,富山市,婦中町友坂上友坂,36.680135,137.142935,23044.344198385334,5537011132,False
富山大学　薬学部,富山県,富山市,婦中町友坂上友坂,36.680135,137.142935,23044.344198385334,5537011132,False
富山大学　大学院　医学薬学教育部,富山県,富山市,婦中町友坂上友坂,36.680135,137.142935,23044.344198385334,5537011132,False
富山大学　大学院　医学薬学研究部,富山県,富山市,婦中町友坂上友坂,36.680135,137.142935,23044.344198385334,5537011132,False
富山大学　和漢医薬学総合研究所,富山県,富山市,婦中町友坂上友坂,36.680135,137.142935,23044.344198385334,5537011132,False
富山大学　附属病院,富山県,富山市,婦中町友坂上友坂,36.680135,137.142935,23044.344198385334,5537011132,False
富山大学　生命科学先端研究センター,富山県,富山市,婦中町友坂上友坂,36.680135,137.142935,23044.344198385334,5537011132,False
富山大学　地域連携推進機構　地域医療・保健支援部門,富山県,富山市,婦中町友坂上友坂,36.680135,137.142935,23044.344198385334,5537011132,False
北海道大学　北方生物圏フィールド科学センター　水圏ステーション　室蘭臨海実験所,北海道,室蘭市,舟見町一丁目,42.309379,140.971444,23115.841036662187,6340377721,False
公益財団法人かずさＤＮＡ研究所,千葉県,木更津市,かずさ鎌足二丁目,35.329823,139.990952,23192.593711159334,,False
苫小牧工業高等専門学校,北海道,苫小牧市,のぞみ町三丁目,42.623331,141.494942,23239.96726251891,6341734943,False
苫小牧工業高等専門学校　機械工学科,北海道,苫小牧市,のぞみ町三丁目,42.623331,141.494942,23239.96726251891,6341734943,False
苫小牧工業高等専門学校　電気電子工学科,北海道,苫小牧市,のぞみ町三丁目,42.623331,141.494942,23239.96726251891,6341734943,False
苫小牧工業高等専門学校　情報工学科,北海道,苫小牧市,のぞみ町三丁目,42.623331,141.494942,23239.96726251891,6341734943,False
苫小牧工業高等専門学校　物質工学科,北海道,苫小牧市,のぞみ町三丁目,42.623331,141.494942,23239.96726251891,6341734943,False
苫小牧工業高等専門学校　環境都市工学科,北海道,苫小牧市,のぞみ町三丁目,42.623331,141.494942,23239.96726251891,6341734943,False
苫小牧工業高等専門学校　学術情報センター,北海道,苫小牧市,のぞみ町三丁目,42.623331,141.494942,23239.96726251891,6341734943,False
苫小牧工業高等専門学校　地域共同研究センター,北海道,苫小牧市,のぞみ町三丁目,42.623331,141.494942,23239.96726251891,6341734943,False
広島県立総合技術研究所　農業技術センター,広島県,東広島市,八本松南七丁目,34.41939,132.699039,23392.21442077105,5132550524,False
財団法人広島県農林振興センター　農業ジーンバンク,広島県,東広島市,八本松南七丁目,34.41939,132.699039,23392.21442077105,5132550524,False
群馬県家畜衛生研究所,群馬県,前橋市,富士見町皆沢,36.465079,139.108961,23413.507169982877,,False
山梨県農政部　水産技術センター,山梨県,甲斐市,牛句,35.70416,138.523236,23475.13298339331,5338444142,False
福井県立大学,福井県,永平寺町,渡新田,36.10827,136.277091,23613.980956760424,5436122233,False
福井県立大学　経済学部,福井県,永平寺町,渡新田,36.10827,136.277091,23613.980956760424,5436122233,False
福井県立大学　生物資源学部,福井県,永平寺町,渡新田,36.10827,136.277091,23613.980956760424,5436122233,False
福井県立大学　看護福祉学部,福井県,永平寺町,渡新田,36.10827,136.277091,23613.980956760424,5436122233,False
福井県立大学　大学院　経済・経営学研究科,福井県,永平寺町,渡新田,36.10827,136.277091,23613.980956760424,5436122233,False
福井県立大学　大学院　生物資源学研究科,福井県,永平寺町,渡新田,36.10827,136.277091,23613.980956760424,5436122233,False
福井県立大学　大学院　看護福祉学研究科,福井県,永平寺町,渡新田,36.10827,136.277091,23613.980956760424,5436122233,False
福井県立大学　地域経済研究所,福井県,永平寺町,渡新田,36.10827,136.277091,23613.980956760424,5436122233,False
福井県立大学　学術教養センター,福井県,永平寺町,渡新田,36.10827,136.277091,23613.980956760424,5436122233,False
島根県立大学　短期大学部,島根県,出雲市,武志町,35.396941,132.772396,23637.98561957961,5332067142,False
島根県立大学　短期大学部　看護学科,島根県,出雲市,武志町,35.396941,132.772396,23637.98561957961,5332067142,False
島根県立大学　短期大学部　専攻科,島根県,出雲市,武志町,35.396941,132.772396,23637.98561957961,5332067142,False
金沢大学　環日本海域環境研究センター　低レベル放射能実験施設,石川県,能美市,徳山町（下徳山町）,36.429794,136.532678,23659.604185247765,,False
鳴門教育大学,徳島県,鳴門市,鳴門町高島,34.202963,134.605311,23701.94029356175,,False
鳴門教育大学　学校教育学部,徳島県,鳴門市,鳴門町高島,34.202963,134.605311,23701.94029356175,,False
