name,pref,city,district,latitude,longitude,urban_point,in_mesh_point,is_island
セセキ温泉,北海道,羅臼町,相泊,44.177941846197164,145.3120311665762,102.46284684709258,,False
北の鼻地獄,東京都,小笠原村,硫黄島,24.810000036028196,141.32861119520592,103.52916406869075,,True
相泊温泉,北海道,羅臼町,相泊,44.18432823348095,145.31767509654762,103.59553150682292,,False
馬の背温泉,東京都,小笠原村,硫黄島,24.805833223271602,141.33527773284482,107.46266763490341,,True
為八温泉,東京都,小笠原村,硫黄島,24.807221952575233,141.31972179783455,117.47865020553145,,True
カムイワッカ・硫黄山,北海道,斜里町,大字遠音別村,44.15126410894767,145.13475297062172,122.01405917443921,,False
西表島温泉,沖縄県,竹富町,字高那,24.37868889312965,123.9063279650656,125.70385773597337,,True
摩訶,北海道,松前町,字小島,41.359099995677205,139.80429994763864,132.29139055884426,,False
沈船新温泉,東京都,小笠原村,硫黄島,24.774166835684575,141.29388877359355,140.70747401300315,,True
岩尾別温泉,北海道,斜里町,ウトロ東,44.11033897345177,145.08983866844042,144.86317332504956,6645103711,False
瀬良馬温泉,鹿児島県,十島村,大字口之島,29.955618245126505,129.92693090414352,151.86349477024706,,True
戸尻温泉,鹿児島県,十島村,大字口之島,29.955635022407996,129.92695186220536,151.8744604452732,,True
御岳,鹿児島県,十島村,大字中之島,29.85944393470034,129.85944383547584,161.89760404169985,,True
沈船温泉,東京都,小笠原村,硫黄島,24.77999971865947,141.29499986798658,162.05810852100925,,True
沈船脇,東京都,小笠原村,硫黄島,24.780000012591575,141.2950002368366,162.06166815744086,,True
陸嶺川鉱泉,北海道,羅臼町,峯浜町,43.9072500676244,145.01023292124566,171.35233254968102,,False
陸志別川支流鉱泉,北海道,羅臼町,峯浜町,43.91518606077228,145.0275698628506,172.80727525334595,,False
陸志別川鉱泉,北海道,羅臼町,峯浜町,43.925071922516075,145.03014419911563,172.8693640134048,,False
幌内温泉2号井,北海道,奥尻町,字湯浜,42.19299992847998,139.4333002845996,174.00487585222902,,True
峰浜温泉,北海道,斜里町,字日の出,43.96694379228304,144.89805612525592,177.1014796750028,,False
オショバオマブ川温泉,北海道,斜里町,字日の出,43.96534711202753,144.89471399382973,178.2663070936796,,False
海別温泉,北海道,斜里町,字日の出,43.89013626164476,144.91003620797815,185.36794052779106,,False
崎無異川鉱泉,北海道,標津町,字薫別,43.84287197043243,144.9467391659949,185.9764908436991,,False
竜雲知床温泉,北海道,標津町,字崎無異,43.822918799232596,145.08269693293389,197.848839977034,6545508643,False
薫別温泉,北海道,標津町,字古多糠,43.7980031691678,144.9436332069043,200.1228365412181,,False
北飛行場池(北),東京都,小笠原村,硫黄島,24.7969438076757,141.3225001777099,204.64462052410033,,True
標津金山温泉,北海道,標津町,字川北,43.73837801689529,144.92343878413962,230.4818783746244,6544478342,False
ルベス温泉,北海道,標津町,字川北,43.73228122562428,144.8350782813695,230.69229051588079,,False
向江浜温泉,鹿児島県,屋久島町,口永良部島,30.45527822607945,130.19444373572676,241.11881310707116,,True
西の湯,鹿児島県,屋久島町,口永良部島,30.4725970554736,130.19604347243745,245.5030370363634,,True
遠別旭温泉,北海道,遠別町,南部旭,44.659989184006655,141.86038616810515,246.72848235841457,6641769822,False
(標津町),北海道,標津町,字川北,43.701735797035745,144.86537491448163,247.22983938790253,,False
湯向温泉,鹿児島県,屋久島町,口永良部島,30.45436692482347,130.24745810925495,248.0073234933465,,True
寝待温泉,鹿児島県,屋久島町,口永良部島,30.467911088120307,130.23344375610014,249.2029972729741,,True
斜里川ニノ沢鉱泉,北海道,清里町,字清泉,43.67947795921705,144.69982510042888,249.65873972557551,,False
俣落鉱泉,北海道,中標津町,字開陽,43.68055616633757,144.8208330251548,251.50876784139624,,False
天塩,北海道,天塩町,北川口,44.9394828569759,141.78261399628795,254.6462738806322,,False
川北温泉,北海道,標津町,字川北,43.702566825358495,144.9127312015031,259.3503123790344,,False
(遠別町),北海道,遠別町,南部旭,44.65952801734708,141.85551702666854,264.91922353360866,,False
越川温泉,北海道,斜里町,字富士,43.83429700964779,144.79219729434686,267.6693051099637,,False
神威脇1号井(奥尻町泉源),北海道,奥尻町,字湯浜,42.17159693899101,139.41055323671932,291.82338578823936,6339230242,True
養老牛温泉,北海道,中標津町,字養老牛,43.588001630411554,144.71431817767726,293.4090913186687,,False
上国鉱山,北海道,上ノ国町,字館野,41.670611009233255,140.04848898118962,296.4143179093323,,False
臼別温泉A,北海道,せたな町,大成区平浜,42.22984681175926,139.9186969399722,301.7355038898288,,False
貝取澗,北海道,せたな町,大成区貝取澗,42.19418301257164,139.928343968535,302.1502317577823,,False
湯の滝温泉,北海道,足寄町,茂足寄,43.36996400898883,143.97816872507937,323.7570300820755,,False
オンネトー湯の滝,北海道,足寄町,茂足寄,43.370049894796125,143.97829677234895,323.7846105142691,,False
飽別川上流部,北海道,釧路市,阿寒町飽別,43.3451608608539,144.03557502079033,326.2109229322241,,False
雌阿寒温泉(野中温泉),北海道,足寄町,茂足寄,43.39437004645129,143.98398497881809,326.37162010415557,6543077823,False
白水川上流部,北海道,釧路市,阿寒町飽別,43.36270612749048,144.053128206792,331.7751515059755,,False
千走温泉2号,北海道,島牧村,字賀老,42.64491691798079,140.04216694582968,334.16166151786234,6340707314,False
白水川(濁川上流),北海道,足寄町,茂足寄,43.41385624583517,143.9992250331181,335.1799173843598,,False
足寄白水川,北海道,足寄町,茂足寄,43.41380621097856,143.99946085326582,335.22193953464324,,False
白水川上流変質帯,北海道,釧路市,阿寒町阿寒湖温泉４丁目,43.37996376294101,144.047749931224,338.1979934899924,,False
砂湯,北海道,弟子屈町,字美留和,43.62435044388622,144.3598582090107,340.8211380768311,,False
池の湯,北海道,弟子屈町,字屈斜路,43.604866817147474,144.35763303568154,347.6346627209007,,False
ウグイ川上流部,北海道,釧路市,阿寒町阿寒湖温泉４丁目,43.397224745089936,144.0416670817134,347.92652738496287,,False
(置戸町),北海道,置戸町,常元,43.61386373683737,143.38050613632169,348.066256389781,6543333032,False
ピリカネップ白水川,北海道,釧路市,阿寒町阿寒湖温泉３丁目,43.38040619667739,144.10132792628468,351.46890300190785,,False
泊可鹿湯,北海道,島牧村,字豊平,42.629793901841154,140.10804199289453,351.58304903203276,,False
鹿の子温泉,北海道,置戸町,勝山,43.617732995662585,143.4422168420232,360.31035551551037,,False
見市温泉A,北海道,八雲町,熊石鮎川町,42.15539999238308,140.04107186308545,363.7306508887844,6340108332,False
鉛川,北海道,八雲町,鉛川,42.172781131232,140.1318687958964,380.86727145112997,,False
平田内,北海道,八雲町,熊石平町,42.1613688842814,139.99717206465758,382.00987777491775,,False
幌加温泉,北海道,上士幌町,字幌加,43.468438861346336,143.12382471058572,386.07451745415153,,False
歌登町源泉,北海道,枝幸町,歌登辺毛内,44.78555637737572,142.5172218895125,387.56574114379566,6742144114,False
開陽台温泉,北海道,中標津町,字開陽,43.62294679885042,144.883993949862,388.30450980877964,,False
和琴半島,北海道,弟子屈町,字屈斜路原野,43.58157789936961,144.3126720067502,388.3581907529885,,False
芽登温泉,北海道,足寄町,芽登,43.3905750684011,143.33315778985448,392.1234034453917,6543026643,False
ホテル緑館井,北海道,奥尻町,字湯浜,42.16545027970031,139.4133638882245,392.85218796010076,,True
見市,北海道,八雲町,熊石鮎川町,42.15726905774783,140.04428907922994,393.88930004715957,,False
新硫黄島温泉,鹿児島県,三島村,大字硫黄島,30.803611053015377,130.340277753103,400.7499889123277,,True
北平温泉,鹿児島県,三島村,大字硫黄島,30.79750013403905,130.30499987050794,401.8778285373558,,True
ウタン浜温泉,鹿児島県,三島村,大字硫黄島,30.80666668542229,130.3005562172126,402.7073205121146,,True
雄阿寒温泉,北海道,釧路市,阿寒町オクルシュベ,43.42210213757866,144.14282124924324,403.5706514139358,6544110132,False
フレベツ変質帯,北海道,釧路市,阿寒町阿寒湖温泉４丁目,43.40573090395861,144.06997782483634,406.8745715432387,,False
坂本温泉,鹿児島県,三島村,大字硫黄島,30.80246697673276,130.291275102937,407.40319535659097,,True
高原温泉,北海道,上川町,字層雲峡,43.618526938072215,142.96929319732882,421.1858626163192,,False
東温泉,鹿児島県,三島村,大字硫黄島,30.781500206853565,130.2978915806382,423.48652477799845,,True
ピリカ,北海道,長万部町,字茶屋川,42.46830007697242,140.22099981510632,426.7902959799794,,False
二股温泉,北海道,長万部町,字大峰,42.57711882136985,140.23928592975454,428.77014724488856,6340619911,False
ヌプントムラウシ温泉(沼の原温泉),北海道,新得町,字屈足,43.49126391059726,142.95875321233436,430.09763788354326,,False
美利河温泉,北海道,今金町,字美利河,42.53938909383757,140.25147181138536,440.77933512825797,,False
砂蘭部川,北海道,八雲町,大新,42.15981711410894,140.2091937200539,445.00828682927914,,False
雄阿寒変質帯,北海道,釧路市,阿寒町オクルシュベ,43.42333895788238,144.147413930659,446.2789343068083,,False
新岳温泉2,北海道,美瑛町,字天人峡,43.544551983745684,142.9032051452627,456.99923771021344,,False
新岳温泉1,北海道,美瑛町,字天人峡,43.54462119613259,142.9031619677891,457.0286500854248,,False
鹿の沢,北海道,美瑛町,字天人峡,43.50119190598864,142.89703602202488,459.6581793339274,,False
地獄谷,北海道,美瑛町,字天人峡,43.5328887544524,142.8937435691426,462.2981099313899,,False
留真温泉,北海道,浦幌町,留真,42.940096743660725,143.6886859398784,462.93962863369757,,False
菅野温泉,北海道,鹿追町,北瓜幕,43.32509996277715,143.04892505269243,462.943119291786,6443709322,False
桜野,北海道,八雲町,桜野,42.12960137873086,140.28158605887276,471.9322288093825,6340125241,False
羅臼温泉,北海道,羅臼町,礼文町,44.028234004137296,145.1588340058061,475.00463954447775,,False
然別峡温泉,北海道,鹿追町,北瓜幕,43.30795293919007,143.125778001258,478.41502906373125,6443716033,False
有毒温泉,北海道,上川町,字愛山渓,43.68320397398976,142.8870628893709,484.1730056982342,,False
シケレベツ,北海道,北見市,滝湯,43.75166922187902,143.4076498801684,484.38083862714154,,False
陸別町泉源,北海道,陸別町,字南斗満,43.4783328454023,143.61805603556172,485.30160158403186,6543147914,False
小鉢平温泉,北海道,上川町,字愛山渓,43.658611041416485,142.8800000634865,485.93445163940504,,False
丸瀬布温泉,北海道,遠軽町,丸瀬布武利,43.9146540235529,143.32862911524987,486.978287490814,,False
(上川町),北海道,上川町,字白川,43.74202507150355,142.89550838778976,487.62880080455864,,False
(丸瀬布町),北海道,遠軽町,丸瀬布武利,43.91458614543322,143.3287359327399,488.9917307149291,,False
白水川左支流,北海道,上川町,字愛山渓,43.71928332048243,142.91385319297626,490.9126602834316,,False
白水川,北海道,上川町,字愛山渓,43.71931677056626,142.91408852766926,491.196108265013,,False
桜野温泉2号,北海道,八雲町,わらび野,42.14800290592242,140.2905562811364,505.76179961605226,6340127333,False
中岳温泉,北海道,上川町,字愛山渓,43.681695158318334,142.86101807139502,507.02799990487114,,False
珊内,北海道,神恵内村,大字赤石村,43.181932954517904,140.3628028314444,512.6073476253755,,False
然別湖畔温泉,北海道,鹿追町,北瓜幕,43.27309166568204,143.1040327603171,515.8033916578325,6443702834,False
白土温泉,北海道,釧路市,阿寒町阿寒湖温泉４丁目,43.41293878193696,144.08125175379928,517.4741701279877,,False
標茶・五十石,北海道,標茶町,五十石,43.23840791679948,144.54750795348062,521.1185436259419,6444648342,False
新得・湯の滝,北海道,新得町,字屈足,43.380725188128416,142.78079711103712,522.0176113535241,,False
旭岳火口,北海道,東川町,勇駒別,43.66111119993838,142.8433331837525,522.7874371703342,,False
旭岳噴気孔,北海道,東川町,勇駒別,43.66388899657689,142.83388907133062,534.6688895903877,,False
知内,北海道,知内町,字湯ノ里,41.5951362146538,140.2937248077245,539.0548414821945,6240321323,False
トムラウシ温泉,北海道,新得町,字屈足,43.46076096775178,142.87269993185657,540.4629995206441,,False
白湯山変質帯,北海道,釧路市,阿寒町阿寒湖温泉４丁目,43.4146219535487,144.0814810211819,549.2667434132894,,False
塩別温泉,北海道,北見市,滝湯,43.738651185659464,143.4203435364594,556.8245552686446,,False
オソウシ温泉,北海道,鹿追町,上幌内,43.232400131792936,142.96121916045487,558.4812833508199,,False
落部上の湯,北海道,八雲町,栄浜,42.10670006621598,140.37399973102103,562.2814290114078,,False
上ホロカ川上流,北海道,美瑛町,字白金,43.41749998799,142.73138875626097,564.2738539979588,,False
瀬戸瀬温泉,北海道,遠軽町,湯の里,43.9401861843222,143.42893895339742,565.3888031250624,6543732434,False
里村温泉,鹿児島県,十島村,大字中之島,29.84144198773195,129.85046095734933,567.3650266840907,4429660833,True
愛山渓温泉,北海道,上川町,字愛山渓,43.72009195239526,142.81513300923334,569.7530002541428,6542466513,False
平山温泉,鹿児島県,南種子町,平山,30.43195600171291,130.97600288246227,586.293198048465,,True
モツタ海岸温泉,北海道,島牧村,字栄浜,42.672685940774784,139.88847197469212,593.1836062993855,6439070131,False
末広温泉,北海道,大空町,東藻琴末広,43.78363629114184,144.31295018217074,613.2079937686643,,False
屈斜路,北海道,弟子屈町,字屈斜路原野,43.57036876528858,144.3203751152188,617.0928590880518,6544228523,False
天人峡温泉,北海道,東川町,松山温泉,43.632568739343064,142.77336085417124,619.3618897786247,,False
湯の沢(熊の沢),北海道,上富良野町,十勝岳地区,43.43036390750511,142.6778198733623,626.556608738046,,False
安政火口,北海道,上富良野町,十勝岳地区,43.40956094123907,142.6620871652746,636.3683293377475,,False
置戸町勝山地区泉源,北海道,置戸町,安住,43.632108000931446,143.49377498103857,638.260520175136,6543335943,False
静翠荘,北海道,弟子屈町,字屈斜路原野,43.572069009782204,144.3184209982522,638.3581371600491,6544228532,False
凌雲閣泉源,北海道,上富良野町,十勝岳地区,43.40928630559953,142.6603490085658,638.5790557903138,,False
原始が原,北海道,富良野市,字東富丘,43.35752782359137,142.6284440464326,654.0803733066183,,False
仁伏温泉,北海道,弟子屈町,字美留和,43.64374702964868,144.39394708686802,656.2120499212402,6544337121,False
十勝岳温泉,北海道,上富良野町,十勝岳地区,43.413056020532444,142.6438889557017,668.1025762203828,,False
美国温泉,北海道,積丹町,大字美国町,43.25065295717704,140.52448270503777,669.7781196304171,,False
元山マッドポット,東京都,小笠原村,硫黄島,24.788333197005937,141.32222205832122,673.1897715286137,,True
吹上温泉,北海道,上富良野町,十勝岳地区,43.431343864805356,142.64181885584813,679.751505902088,6542151134,False
ベンガラ温泉,北海道,上富良野町,十勝岳地区,43.431311261921316,142.64184173397584,679.751505902088,6542151134,False
翁温泉,北海道,上富良野町,十勝岳地区,43.418022054738266,142.6364920697611,687.8721541120468,,False
雷電,北海道,蘭越町,港町,42.916155951945214,140.4213498557847,688.9951680961194,,False
白金温泉,北海道,美瑛町,字白金,43.471568726151354,142.64698337409746,700.597267947325,,False
川井,北海道,上富良野町,十勝岳地区,43.455278000172434,142.62694432371245,725.9591488608404,,False
鶯鳴荘,青森県,むつ市,大畑町水木沢,41.386008038148844,141.04652209520344,737.13381778068,,False
豊幌,北海道,黒松内町,字歌才,42.63930005041752,140.35170000802327,738.1379014089027,,False
落部下の湯,北海道,八雲町,旭丘,42.16531794078931,140.391446920335,744.1651487945505,,False
水無,北海道,函館市,恵山岬町,41.81133291462192,141.18435289026553,746.2112859493938,6241517423,False
恵山荘3号井,北海道,函館市,恵山岬町,41.811358000389795,141.18434196930772,746.2112859493938,6241517423,False
礼文華,北海道,豊浦町,字礼文華,42.60800001334592,140.57970024866768,771.3480516795292,,False
豊富温泉,北海道,豊富町,字温泉,45.08055614180956,141.83027832838118,779.7553167149515,6741469632,False
中茶屋,北海道,上富良野町,十勝岳地区,43.460833002826824,142.59944428008495,797.4710404216626,,False
石倉,北海道,森町,字本茅部町,42.14100010433529,140.486999987646,801.1082440070284,,False
宮内温泉3号井,北海道,島牧村,字泊,42.674821946806695,140.0852029021609,801.8649469880668,6440000644,False
宮内温泉4号井,北海道,島牧村,字泊,42.67483901916985,140.08526867545538,801.8649469880668,6440000644,False
士幌,北海道,士幌町,字下居辺,43.12823104398721,143.36829383186156,833.125720448024,,False
松前町1号泉源,北海道,松前町,字朝日,41.43728863890153,140.14974383501718,841.0684314640425,,False
恵山温泉,北海道,函館市,御崎町,41.805002984494216,141.1587779690892,855.9246409236167,,False
新得町泉源,北海道,鹿追町,上幌内,43.15646122818815,142.90552205103515,857.4660738859144,6442578234,False
豊浦町礼文華泉源,北海道,豊浦町,字礼文華,42.60569998002175,140.5836999562951,869.4775094860257,6340742641,False
薬研,青森県,むつ市,大畑町水木沢,41.381819066990175,141.06742173198336,875.9641517802811,6241005534,False
旭川市泉源,北海道,旭川市,東旭川町瑞穂,43.71908888894217,142.68442825495245,876.9855675950181,,False
新見温泉1号,北海道,蘭越町,字新見,42.88224667562966,140.5480969385892,892.3210264422073,6440245344,False
自然休養林泉源,北海道,釧路市,阿寒町上阿寒,43.14361106622214,144.14194377018202,914.4452155953744,6444517112,False
白滝温泉,北海道,遠軽町,白滝,43.87588111924012,143.16577506410073,925.6204826155308,6543615312,False
岩崎新湯,青森県,深浦町,大字岩崎,40.58148927598785,139.98927179827197,926.0816846937518,,False
祓川鉱泉,高知県,宿毛市,橋上町出井,33.07925823211669,132.65466367835785,929.6563651345457,,False
稲倉石鉱山,北海道,古平町,大字歌棄町,43.14849996204455,140.62380010065814,932.7045694772557,,False
アルコ236泉源,北海道,幕別町,忠類本町,42.580186072570825,143.31382192938477,939.365681672727,,False
神恵内,北海道,神恵内村,大字神恵内村,43.15554383471411,140.45021083903572,939.8194892933623,,False
茂岩・盃,北海道,泊村,大字興志内村,43.11491673837772,140.45885278125493,939.9342406266719,,False
滝の湯温泉,北海道,北見市,滝湯,43.733843890413446,143.42255811043046,951.9030508943425,6543438322,False
上武佐温泉,北海道,中標津町,東三十九条北６丁目,43.61716105580558,144.99674216183885,953.7440584603828,6544374921,False
旭台,北海道,蘭越町,字湯里,42.855999969319825,140.58519999200988,955.0145057474427,,False
高田泉源,北海道,島牧村,字永豊町,42.70249192098869,140.0704190340024,958.9154473367633,,False
湯別,北海道,寿都町,字湯別町下湯別,42.75346860474115,140.27545285144416,969.9075408446154,,False
トドメキ,北海道,森町,字砂原東４丁目,42.09774997866822,140.76639191326854,975.6494867418929,,False
椿山,青森県,深浦町,大字舮作,40.59266120867251,139.8707615392203,983.6735189455698,,False
旭台温泉,北海道,蘭越町,字日出,42.84868622340362,140.5911968685076,983.977552082568,,False
松葉川温泉,高知県,四万十町,窪川中津川,33.312868891464866,133.071320240767,1052.1772579053395,4933707541,False
静狩,北海道,長万部町,字静狩,42.59370001148585,140.46799976125817,1073.1589421280642,,False
日ノ出,北海道,蘭越町,字日出,42.845767012089524,140.6030188998493,1076.9765956783483,,False
十二湖,青森県,深浦町,大字森山,40.55656122203522,139.9465717339656,1083.6965514992974,,False
猿の湯,青森県,深浦町,大字上長慶平,40.611291592139686,140.00393880330438,1095.0030026454383,,False
薬師,北海道,蘭越町,字日出,42.833016777760065,140.5940360097274,1098.517506200991,6440149743,False
大赤川,青森県,風間浦村,大字下風呂字甲平ノ上,41.45184684785539,141.1020498645258,1108.9952644027833,,False
(北川村),高知県,北川村,大字小島,33.49822800177978,134.10006121171165,1115.5963195915704,5034109833,False
森赤井川,北海道,七飯町,字西大沼,42.00084377197529,140.60119174824868,1122.0050596315184,,False
湯坂,青森県,むつ市,大字田名部字宇曽利山,41.32494396571185,141.09922818355105,1123.9051730334727,,False
城ケ沢,青森県,むつ市,川内町戸沢,41.20345023988409,141.07414196221532,1130.3977761605538,6141604524,False
舮作・みちのく,青森県,深浦町,大字舮作,40.60148605881843,139.86872498797896,1130.4040871784807,,False
勇駒別温泉,北海道,東川町,勇駒別,43.6484468069157,142.79111120593814,1132.1106636112506,,False
安庭沢・和井内,岩手県,宮古市,和井内,39.70485813092956,141.66083122315845,1140.6047022918808,5941454242,False
脇野沢村,青森県,むつ市,脇野沢字滝山,41.16639683984842,140.80373859176694,1154.2554522784155,6140569434,False
大江鉱山,北海道,仁木町,然別,43.144257950519226,140.67961391831216,1154.9133514319853,,False
塘路湖・シラルトロ沼,北海道,標茶町,茅沼,43.188333186032345,144.5083330691598,1155.1332947728895,6444642041,False
磯谷温泉,北海道,函館市,双見町,41.97812818704614,140.88351115081815,1160.9651006650315,,False
濁川,北海道,森町,字濁川,42.11070005842192,140.44319999660112,1168.4266507824318,,False
中央荘,北海道,森町,字濁川,42.12502508628856,140.44766665308083,1168.9800461280583,6340135522,False
旭岳温泉,北海道,東川町,勇駒別,43.64773479561933,142.79037979666768,1170.3961409740903,,False
平内温泉,鹿児島県,屋久島町,湯泊,30.23055620783232,130.48333314438182,1172.6240877452578,,True
(物部村,高知県,香美市,別府,33.76383685061666,134.03039496628804,1177.2225527585006,5034501232,False
鷹の湯,岩手県,山田町,船越第２３地割,39.45769399961658,142.047863823014,1178.288091173206,,False
留ノ湯,北海道,鹿部町,字駒見,42.02490768765843,140.73705027758655,1178.5923269574896,,False
瀬棚町4号泉源,北海道,せたな町,瀬棚区南川,42.432999832564846,139.85250005309499,1179.9525160411038,,False
金ケ崎,秋田県,男鹿市,戸賀塩浜字漁元崎,39.92806709929963,139.71000614004703,1182.086251423406,,False
日の出,北海道,蘭越町,字日出,42.8252999245862,140.5913002061145,1182.2540211656312,6440149712,False
上富良野町泉源,北海道,上富良野町,旭野,43.45833275328577,142.5455559225621,1183.6674819871375,,False
七岳荘,長崎県,五島市,玉之浦町荒川,32.66729403248989,128.6707328087657,1192.0841139532154,4928050321,True
熊ノ湯,青森県,鰺ヶ沢町,大字小森町,40.66082783910872,140.14958619825003,1193.4096046084646,,False
意養,北海道,厚沢部町,字上里,41.93625021818212,140.24800790528536,1196.9124371135608,,False
曽根,長崎県,新上五島町,曽根郷,33.100731283463055,129.11171707368797,1213.004517270234,4929502822,True
交流センター泉源,北海道,釧路市,山花,43.07901696032704,144.22978904952708,1216.3945709417346,,False
(豊富町),北海道,豊富町,字温泉,45.07361100808619,141.84138898579974,1222.4451568543711,,False
御三家信長湯大西1号井,北海道,洞爺湖町,字岩屋,42.65980032176855,140.8969998722842,1230.767784112894,,False
(上島町),愛媛県,上島町,弓削豊島,34.23250001255029,133.25888876674517,1231.2784173131445,,True
(十和村),高知県,四万十町,広瀬,33.21527823851865,132.83055601221218,1231.6074366950843,4932665634,False
沼尻,北海道,森町,字砂原東２丁目,42.12129995702271,140.7266999563269,1241.9605585813224,,False
長浜温泉,鹿児島県,三島村,大字硫黄島,30.78166684149197,130.27749998115272,1249.4563214501707,4630123233,True
安部城,青森県,むつ市,川内町新田,41.25198898512367,140.9898500322711,1258.9345818858492,6140770911,False
ネトイ荘泉源,北海道,せたな町,北檜山区丹羽,42.4300002164402,139.94270010257054,1272.5914028508864,6339571532,False
南茅部,北海道,函館市,臼尻町,41.95377489332243,140.86856707713974,1274.1963876834259,,False
下居辺町泉源,北海道,士幌町,字下居辺,43.13835810648196,143.3681869540968,1274.7950662794763,6443526932,False
士幌町緑風荘2号泉源,北海道,士幌町,字下居辺,43.138461193668725,143.36818617184394,1274.7950662794763,6443526932,False
稲富温泉,北海道,網走市,字稲富,43.87816386841106,144.27224710857635,1287.5118737426494,,False
東大沼,北海道,七飯町,字大沼町,42.01679973878054,140.6991999209394,1294.5407534836274,,False
入舸,北海道,積丹町,大字入舸町,43.36709401405121,140.47470299093575,1303.093556711833,6540034722,False
(檮原町),高知県,檮原町,松原,33.31750002793327,132.97111075739735,1303.4585849702273,4932778721,False
(森吉町平田),秋田県,北秋田市,森吉,40.04339417179264,140.60175001916517,1310.1014168749405,,False
新鳩の湯,秋田県,仙北市,田沢湖玉川,39.91066687549143,140.6977668155555,1310.9208052511995,5940659524,False
秋田焼山,秋田県,仙北市,田沢湖玉川,39.96460805337693,140.76182488810332,1313.4690588448518,,False
白萩平,青森県,田子町,大字夏坂,40.32412200894623,140.97867196618617,1319.833686110668,,False
酸の湯,秋田県,鹿角市,八幡平,39.98966705829608,140.79272320994778,1323.52876736328,,False
御崎,北海道,函館市,御崎町,41.79593919940406,141.17246402746017,1324.3063342741225,6241515342,False
石田温泉,北海道,函館市,御崎町,41.796099889042644,141.17425279004712,1324.3063342741225,6241515342,False
ニセコアンヌプリ,北海道,ニセコ町,字ニセコ,42.85054415359677,140.64166392620217,1324.7800652888272,,False
島牧村泉源,北海道,島牧村,字元町,42.687818044578755,140.01504969702813,1325.197219072078,6440002131,False
島牧村千走河口泉源2号,北海道,島牧村,字元町,42.68787506101756,140.01502177858126,1325.197219072078,6440002131,False
赤川,秋田県,鹿角市,八幡平,39.997735023116824,140.79321690442185,1325.7579109119365,,False
ニセコアンヌプリホテル,北海道,ニセコ町,字ニセコ,42.85052200697885,140.64188716422237,1326.0759892897406,,False
ホテル緑館4号,北海道,江差町,字五厘沢町,41.94851694876628,140.13820772974088,1326.3340997787832,6240713133,False
乙部町館浦泉源(乙部町泉源B),北海道,江差町,字五厘沢町,41.94843097594297,140.13846701630186,1326.3340997787832,6240713133,False
雑魚の沢,秋田県,仙北市,田沢湖玉川,39.88888511211415,140.68693167309812,1326.7001469862375,,False
湯ノ沢・杣,秋田県,北秋田市,森吉,40.05412487897684,140.58158078534973,1327.0951779084014,,False
駒ヶ岳,北海道,森町,字駒ケ岳,42.034938664003654,140.58249689965754,1328.2978455961677,,False
叫沢,秋田県,仙北市,田沢湖玉川,39.96785622408968,140.73814976185517,1328.606534464288,,False
大船上の湯,北海道,函館市,豊崎町,41.93753108456303,140.91255809062102,1329.0928706570378,,False
日本石油東大沼荘,北海道,森町,字赤井川,42.01179992420764,140.65400006042077,1331.1895885766603,,False
後生掛,秋田県,仙北市,田沢湖玉川,39.97300820193597,140.80020799806894,1331.2944311511214,,False
五色の湯,北海道,森町,字濁川,42.12178119984869,140.44410580625507,1335.0097179215866,6340134541,False
(梼原町),高知県,檮原町,上西の川,33.381389164413285,132.863888570835,1340.3793626563279,5032065933,False
河内温泉,鹿児島県,南種子町,上中,30.40677305705553,130.9189236662735,1340.7236259550393,4530478343,True
大深,秋田県,仙北市,田沢湖玉川,39.97237174247144,140.81677195399357,1342.6385792881908,5940766532,False
ニセコワイス山荘緑館,北海道,倶知安町,字花園,42.90588622786358,140.67190792305834,1343.9667139991557,,False
湯ノ沢・又口小屋,秋田県,仙北市,田沢湖玉川,39.92679702328919,140.78359394852203,1347.6962536361468,,False
花園,北海道,倶知安町,字花園,42.906056283610525,140.67186410785214,1351.1746179123766,,False
蒸の湯,秋田県,仙北市,田沢湖玉川,39.97635326348059,140.81933636830826,1352.8470582372597,,False
湯田又沢,秋田県,仙北市,田沢湖玉川,39.94290011713906,140.80797203716767,1354.9579628972938,,False
新山沢,秋田県,仙北市,田沢湖玉川,39.963463897806776,140.82702496989492,1357.700718416859,,False
トロコ,秋田県,鹿角市,八幡平,40.0129530145018,140.80286113806807,1358.5159073197735,,False
(物部村),高知県,香美市,黒代,33.74900306355557,133.89802669956833,1360.3935537998707,,False
銭川,秋田県,鹿角市,八幡平,40.01472195543597,140.80369711143686,1365.477021226466,,False
ホテル竜飛,青森県,外ヶ浜町,字三厩龍浜,41.25703883704281,140.3476812035902,1365.6208293374043,6140720744,False
洞爺,北海道,洞爺湖町,字川東,42.64871696767943,140.86791697153976,1370.732342957639,6340767934,False
木沢泉源,徳島県,那賀町,小畠,33.862500273369506,134.25111126221398,1373.089272984168,5034623031,False
志張,秋田県,鹿角市,八幡平,40.02389699878545,140.81541391476085,1392.1125345792577,,False
草の湯,岩手県,八幡平市,細野地区,39.980621998013255,140.87509995572847,1392.2918150508958,,False
大沢,岩手県,宮古市,古田,39.59059706720902,141.74451376477884,1393.9635627010468,,False
(佐賀町),高知県,四万十町,峰ノ上,33.163056248508134,133.13972188101638,1395.5768555231516,4933519131,False
コタン温泉,北海道,八雲町,山越,42.23230010407886,140.31499975737748,1402.6760437090538,,False
玉川,秋田県,仙北市,田沢湖玉川,39.962918797754,140.72477217554578,1403.1686576858697,5940755742,False
H-3(藤七温泉),岩手県,八幡平市,緑ガ丘,39.941593702764735,140.86149689432742,1420.7098622567255,,False
大船下の湯,北海道,函館市,豊崎町,41.94558112309554,140.91740615830784,1421.3357864587824,6240773314,False
藤七沢,岩手県,八幡平市,緑ガ丘,39.940699929338955,140.86510298980593,1427.7333598752446,,False
上田屋,青森県,東通村,大字田屋,41.26606122208856,141.2942330531835,1427.8234021210621,,False
胆振,北海道,伊達市,昭園町,42.61302175342851,141.0571469887056,1431.0185470267045,,False
弁景,北海道,壮瞥町,字南久保内,42.56055501318865,140.9886167641531,1434.4463945654088,,False
安比,岩手県,八幡平市,緑ガ丘,39.97438611133429,140.8984860784321,1434.6318252504336,,False
羊蹄,北海道,ニセコ町,字羊蹄,42.820199862737056,140.74470018434437,1438.0694028645419,,False
畚沢,岩手県,八幡平市,緑ガ丘,39.934386802044784,140.86677512417413,1439.9928572612212,,False
糠平温泉,北海道,上士幌町,字ぬかびら源泉郷,43.36438908266179,143.18934698370555,1440.1260711292753,6543013531,False
砂子瀬,青森県,西目屋村,大字砂子瀬字宮元,40.529693881438575,140.24233877836267,1442.1287674518926,,False
山根の湯,岩手県,久慈市,山根町下戸鎖,40.082611028011605,141.70561721682668,1444.682618474401,6041059634,False
ワイス,北海道,共和町,ワイス,42.95994998272247,140.69474664218916,1456.2407492131563,6440355521,False
(津野町),高知県,津野町,北川,33.377778279191,133.01194393576793,1464.4234557830966,5033005024,False
じゅんさい沼温泉R1号,北海道,七飯町,字西大沼,41.98068313940844,140.63823118699526,1476.149746680989,,False
(安芸市),高知県,安芸市,畑山畑山,33.62273386798213,133.9224918246478,1481.3269320354486,5033374342,False
蔦,青森県,十和田市,大字法量,40.59728298839903,140.95278901441833,1482.5989799539907,6040771631,False
田代の湯,岩手県,二戸市,浄法寺町飛鳥,40.084578186590846,141.12926712696537,1486.346480456074,,False
山出鉱泉,愛媛県,愛南町,緑甲,33.01232510342003,132.601513934627,1487.649432422956,4932441813,False
ニセコ望洋温泉,北海道,倶知安町,字山田,42.8656780316661,140.69123871433712,1491.5852403576991,,False
西大沼,北海道,森町,字赤井川,41.99119973246665,140.64769974011168,1492.326245402955,,False
宮本,岩手県,岩泉町,袰野,39.84288279772724,141.9038280933054,1499.2596007868779,5941671212,False
柏野,北海道,函館市,恵山町,41.795322125081434,141.15311871548917,1504.1726961261038,,False
湯野川,青森県,むつ市,川内町湯野川,41.31630300643841,140.9601247261487,1507.2712330261415,6140777644,False
ナナカマド荘2号井,秋田県,鹿角市,八幡平,40.01559684281998,140.81028605447227,1510.0119869155362,,False
盤の沢,北海道,共和町,ワイス,42.92499978937381,140.70170016899993,1522.6008322339362,,False
易国間,青森県,風間浦村,大字易国間字桑畑,41.48181098171854,141.03525807778547,1525.1084847806699,6241107244,False
露熊観光協会所有源泉,秋田県,北秋田市,阿仁荒瀬,39.97300007365468,140.3771077340841,1528.4606009835868,,False
共同泉源,北海道,壮瞥町,字上久保内,42.588181106062635,141.02597206294686,1544.1944338065234,6341700231,False
八森,秋田県,八峰町,八森,40.3861334229604,139.9864361538902,1548.8270953143972,,False
小釜,岩手県,雫石町,西根高倉山国有林,39.80490294562153,140.7974500164384,1550.7804046518604,,False
蟹湯,岩手県,雫石町,西根高倉山国有林,39.80621893561509,140.7993419796941,1550.8990711637996,,False
大釜,岩手県,雫石町,西根高倉山国有林,39.80447504162756,140.79717505256548,1551.298269587903,,False
妙乃湯,岩手県,雫石町,西根高倉山国有林,39.80313123438214,140.7976666846322,1555.0573970118362,,False
潮香荘2号,北海道,泊村,大字興志内村,43.10801369337403,140.45323278993632,1557.1432669027474,6440532634,False
あつ湯,青森県,十和田市,大字法量,40.63320820408703,140.92391109712977,1560.647862706392,6040775344,False
赤倉沢,岩手県,雫石町,西根高倉山国有林,39.7914107843171,140.7797081305826,1561.679358951915,,False
孫六,岩手県,雫石町,西根高倉山国有林,39.80462498647625,140.80438611918106,1562.9107159725838,,False
若の湯,秋田県,鹿角市,八幡平,40.01890024520351,140.8115719342306,1563.2802647883136,,False
猿倉,青森県,十和田市,大字法量,40.62659388385089,140.9087502027616,1570.3907321189158,,False
黒湯,岩手県,雫石町,西根高倉山国有林,39.80223896422002,140.80586404250113,1570.8295016326797,,False
御在所,岩手県,八幡平市,緑ガ丘,39.950331061762114,140.93227494095538,1572.7960718386755,,False
永江温泉,北海道,倶知安町,字大和,42.944156166168575,140.84467501412658,1574.425427532829,,False
大和温泉泉源,北海道,倶知安町,字大和,42.94415589823297,140.84467501872632,1574.4255970810689,,False
八龍の湯,岩手県,八幡平市,緑ガ丘,39.94800004204639,140.9308502412474,1574.6661228107512,,False
明利又,秋田県,北秋田市,七日市,40.10497824894744,140.50503299456463,1575.9136039712673,6040142032,False
空噴の湯,岩手県,雫石町,西根高倉山国有林,39.79839699408786,140.8050721350008,1578.0530547794258,,False
深浦,青森県,深浦町,大字深浦,40.631113797078044,139.9197467836757,1585.1785519605808,,False
大森平,秋田県,小坂町,小坂字古遠部沢,40.40902518379789,140.75381882471282,1585.5334092897876,,False
浜松温泉,北海道,八雲町,内浦町,42.23551692982981,140.31034955815747,1589.1434359366885,,False
一本松沢,岩手県,雫石町,西根高倉山国有林,39.80096404727008,140.81796700780973,1597.674349756858,,False
(鷹巣町松沢),秋田県,北秋田市,七日市,40.10456683960698,140.4780611589612,1601.271403798643,6040132831,False
尻沢,秋田県,小坂町,小坂字古遠部沢,40.403396744359846,140.75755287119776,1611.249910930127,,False
蟠渓温泉組合2号,北海道,壮瞥町,字上久保内,42.5907890117568,141.0272611210005,1620.1531534282465,6341700233,False
蟠渓,北海道,壮瞥町,字上久保内,42.590841908458714,141.02732496036379,1620.1531534282465,6341700233,False
1・2・4号混合泉,秋田県,仙北市,田沢湖生保内,39.77779702343051,140.76415317379443,1635.2019421939667,,False
久吉,青森県,平川市,大字碇ケ関,40.435699814130786,140.71335324865996,1636.7410775419414,,False
黄金崎不老不死,青森県,深浦町,大字月屋,40.61458314194817,139.86189998029636,1640.733762461872,6039763842,False
(中土佐町),高知県,中土佐町,竹原,33.33472204439271,133.10666654656976,1643.3265161321692,5033000821,False
釜谷温泉,北海道,木古内町,字御宮野,41.71200008655099,140.52919990885837,1648.0699148281008,,False
芦別市油谷泉源,北海道,芦別市,旭町油谷,43.5446558734311,142.2421920138851,1648.790247669336,,False
北竜町泉源,北海道,北竜町,字板谷,43.75097496929955,141.8759387823238,1658.8972749245172,6541570011,False
温川,青森県,平川市,大字切明,40.51433293594866,140.78607182947738,1665.38085772923,,False
大湯,秋田県,鹿角市,十和田大湯,40.37491115545756,140.8870388828847,1668.826784404087,6040474044,False
野沢,青森県,三戸町,国有林地,40.4208747671421,141.11153599102065,1681.558948669766,6041500824,False
ニセコ東山温泉1号井,北海道,ニセコ町,字東山,42.845143999656614,140.67704212137016,1682.6979944700902,,False
農業者健康管理センター,秋田県,北秋田市,阿仁打当字下タ岱,39.92153893270813,140.53776724558475,1684.1522648475745,5940740331,False
藤河内鉱泉,大分県,佐伯市,大字木浦内,32.78701702452536,131.55518129455785,1689.7096887307862,4931144414,False
真狩村泉源,北海道,真狩村,字緑岡,42.76558321477982,140.77774706078387,1691.1546368877928,6440161233,False
中州,岩手県,雫石町,長山東葛根田国有林,39.82714200884883,140.8732220128549,1691.1979378192023,,False
藤山,北海道,ニセコ町,字福井,42.806299818601936,140.63530000899542,1692.2620096255052,,False
寿楽荘,北海道,喜茂別町,字尻別,42.758727919166446,140.93046715765064,1693.6470087376968,6440171412,False
第2鳥越野湯,岩手県,雫石町,長山東葛根田国有林,39.82506853096155,140.87242801692483,1694.5332985645232,,False
ニセコ東山温泉2号井,北海道,ニセコ町,字東山,42.845161032402785,140.67669901123273,1695.2861282874185,,False
川汲温泉,北海道,函館市,川汲町,41.8964580360908,140.9654418083599,1696.3939008343038,6240677731,False
姫島鉱泉,大分県,姫島村,,33.735499811535576,131.683583294309,1699.4641860369225,5031458423,True
鯉茶屋,秋田県,上小阿仁村,南沢,40.01363905726379,140.27982218600957,1700.44967223148,6040021232,False
(鳥海町奥山),秋田県,由利本荘市,矢島町元町,39.127200159180084,140.08840024295355,1708.9995315713215,,False
南白沢,岩手県,雫石町,長山東葛根田国有林,39.81961883796004,140.87198909532663,1709.4320194979828,,False
菊川鉱泉,愛媛県,愛南町,御荘菊川,33.003888687072255,132.51694378857442,1713.1515018463094,,False
七時雨,岩手県,八幡平市,西根寺田,40.03031378806592,141.10846129603124,1725.4190732908412,6041003841,False
赤川(松川),岩手県,雫石町,長山東葛根田国有林,39.86541892850386,140.91423909099976,1738.5090285707167,,False
森野,北海道,白老町,字森野,42.65670024400685,141.25870015051882,1742.746455360832,,False
夕張市1号源泉,北海道,夕張市,日吉,43.02934359328232,142.00392494024246,1752.7729396960906,,False
ハ丈汐間温泉表流水,東京都,八丈町,末吉,33.076388950112054,139.83999998743985,1763.4985012278194,4939469711,True
洞輪沢温泉,東京都,八丈町,末吉,33.07520676791568,139.83873785907042,1763.4985012278194,4939469711,True
祖谷渓温泉,徳島県,三好市,,33.92097679059474,133.81606780927706,1763.778167826144,,False
祖谷温泉,徳島県,三好市,,33.920950904462565,133.81595028786654,1763.9582398772557,,False
面河鉱泉,愛媛県,久万高原町,国有林,33.72333318068107,133.100555992855,1773.931974968264,5033406833,False
楠川温泉,鹿児島県,屋久島町,楠川,30.405003167339988,130.60609191088696,1778.1468565201747,,True
(藤里町松倉),秋田県,藤里町,藤琴,40.30719700640626,140.2750500671174,1782.5108640963294,,False
ホテル山水2号,北海道,七飯町,字大沼町,41.98900028281865,140.66185306656527,1783.4222211705826,,False
小沢,北海道,共和町,小沢,42.96369993104901,140.69169996764285,1788.5914514843482,6440355532,False
古遠部,青森県,平川市,大字久吉,40.43037181284656,140.67039660654325,1793.052749370131,,False
湯の里,北海道,蘭越町,字黄金,42.81705102405955,140.60916308169917,1795.7677750546459,6440148821,False
ニセコ温泉1号,北海道,ニセコ町,字ニセコ,42.84046310069393,140.62236826667564,1810.5184452080834,6440240944,False
湯ノ岱,北海道,上ノ国町,字湯ノ岱,41.74603118922083,140.24446358964835,1814.8590964121572,,False
湯繰舟沢,秋田県,北秋田市,綴子,40.29842825182524,140.35703109018073,1824.4269559853922,,False
澄川(松川),岩手県,雫石町,長山岩手山,39.85879217796195,140.9298170287242,1826.523385635618,,False
大松倉沢,岩手県,雫石町,長山岩手山,39.83863880354399,140.9151830450465,1828.6677555923943,,False
治山事務所,岩手県,雫石町,西根上篠崎,39.816699816014356,140.89769996360846,1832.2457108334795,,False
ニセコ町泉源,北海道,ニセコ町,字ニセコ,42.84530012166663,140.64130010666415,1834.4447436396583,,False
八甲田六号泉,青森県,青森市,大字駒込字深沢,40.69644207735645,140.9114887413782,1837.060597819217,,False
夏瀬,秋田県,仙北市,田沢湖卒田,39.62987807395015,140.69871873889994,1837.1411619861403,,False
酸ケ湯,青森県,青森市,大字荒川,40.649966796494795,140.85207505269875,1841.3456657485654,6040768811,False
保場川温泉,愛媛県,宇和島市,津島町上畑地,33.077531175387215,132.51915606126582,1842.6620967091762,4932449123,False
モンテローザ泉源,北海道,函館市,恵山町,41.794427948082586,141.1509249720058,1846.4472101296094,,False
(津別町),北海道,津別町,字達美,43.724921899939524,144.01335282257617,1846.9432870050427,,False
黒森,青森県,西目屋村,大字白沢,40.63937200201921,140.27147181267486,1853.0300109116354,,False
嶽,青森県,西目屋村,大字白沢,40.64163783784498,140.2753990285055,1855.5232158663682,,False
湯の岱,秋田県,北秋田市,小森,40.17568327024181,140.47622178080422,1860.7603252108793,6040231811,False
(本山町),高知県,本山町,下関,33.80613006594982,133.61703826854148,1863.9977410699548,5033546932,False
カルルス,北海道,登別市,カルルス町,42.518828259141515,141.10721682249581,1864.0917967485245,6341602823,False
よしが浦温泉,石川県,珠洲市,狼煙町,37.51569366169384,137.3430187684873,1864.6833345944958,,False
馬門温泉ホテル,青森県,野辺地町,字地続山,40.87440631323678,141.06136376614757,1865.1261380711878,,False
赤湯又沢上流,秋田県,湯沢市,皆瀬,38.95281997437534,140.62061363794365,1865.479321831789,,False
石神山傍,秋田県,湯沢市,皆瀬,38.96666393240369,140.630603279762,1866.7052941023358,,False
皆瀬川上流,秋田県,湯沢市,皆瀬,38.951808017861254,140.6915469175025,1867.4655337854524,,False
千歳鉱山,北海道,千歳市,美笛,42.712499981969835,141.21080000469016,1874.7204009626255,,False
飯干温泉,宮崎県,日之影町,大字見立,32.744968879674175,131.42076389159666,1878.789581288323,4931039323,False
松川荘の湯,岩手県,八幡平市,松尾寄木,39.87102501775013,140.92649385583425,1884.0553856313848,5940674431,False
湯の又,秋田県,湯沢市,秋ノ宮,38.94980824123135,140.5761748483005,1892.5888613057266,,False
於札内,北海道,浦臼町,鶴沼第１,43.46499999678157,141.80570002230064,1903.5419683500872,,False
泉源1,秋田県,湯沢市,高松,38.991086253604884,140.60010311227407,1905.5936953186128,,False
田代平,青森県,青森市,大字駒込字深沢,40.70811686017189,140.9056531817958,1908.0176156743578,,False
白水の湯,岩手県,釜石市,甲子町第１３地割,39.296138990820275,141.77299995028773,1916.085924164674,5841765142,False
下北半島温泉,青森県,東通村,大字田屋,41.27081364859402,141.26867504642877,1919.6068494798174,,False
矢立,秋田県,大館市,長走,40.418425108992444,140.61728088704885,1920.2798514277779,,False
田代新湯,青森県,青森市,大字駒込字深沢,40.71027790742213,140.90483888536596,1925.1594809433607,,False
相乗,青森県,平川市,大字久吉,40.427324919948106,140.63500810457288,1931.4997978792826,,False
木地山,秋田県,湯沢市,皆瀬,39.00069997090491,140.63165614364152,1931.5554889176187,,False
霊泉の湯,宮城県,栗原市,栗駒沼倉耕英東,38.97936374839894,140.77106699614043,1937.9042396064883,5840367141,False
下内沢,秋田県,大館市,長走,40.41685622774237,140.579793734073,1939.320952904182,,False
田代元湯,青森県,青森市,大字駒込字深沢,40.70839203155502,140.89986105139928,1945.8389753212937,,False
湯の台,山形県,酒田市,草津字湯ノ台,39.03016705650028,140.03279217447027,1947.4192659439152,,False
真湯,岩手県,一関市,厳美町字祭畤,39.00543880319506,140.84603292284316,1949.7458132117943,,False
鹿の湯,岩手県,奥州市,若柳,39.094586074138725,140.87157495331692,1950.664793151877,,False
日景,秋田県,大館市,長走,40.42343897931161,140.60796696027563,1953.5162439136675,,False
加茂,秋田県,男鹿市,戸賀加茂青砂,39.909475011517536,139.73161681748076,1956.591252407822,5939659821,False
津軽湯ノ沢,秋田県,大館市,長走,40.42946721619213,140.61374203814606,1968.3005630579764,,False
馬荷温泉,高知県,黒潮町,馬荷,33.05944404295844,132.97861082943732,1978.7098581466482,4932477812,False
砥ノ川,北海道,仁木町,砥の川,43.15099991742033,140.73770007946837,1978.8361988770962,,False
滑多羅,秋田県,五城目町,富津内中津又,39.95915807175828,140.22170800729614,1980.7101222463546,,False
鷲合森,岩手県,西和賀町,本屋敷,39.227902744669024,140.8677390610862,1980.7238721674398,,False
網張元湯,岩手県,雫石町,長山岩手山,39.8378809925204,140.94286397122934,1985.4712904458725,,False
冷水,青森県,十和田市,大字法量,40.582722165609376,141.0508139327883,1985.5059823730878,,False
新湯,宮城県,栗原市,栗駒沼倉耕英東,38.94371110077772,140.8186860991985,1989.5546248551839,,False
鳴沢,岩手県,一関市,厳美町,39.025000084840855,140.8744528107962,1997.0811828523056,,False
湯の倉,宮城県,栗原市,花山字本沢岳山,38.891952788770325,140.76179199167566,2003.7020973787442,,False
矢地の沢,秋田県,湯沢市,秋ノ宮,38.954271867438784,140.55913595204973,2003.726235384354,,False
泥湯,秋田県,湯沢市,皆瀬,38.99198115781954,140.61289699565137,2008.9581326849402,,False
北湯沢,北海道,壮瞥町,字上久保内,42.615768786206374,141.0228559094165,2023.624589093688,,False
海岸温泉,東京都,三宅村,阿古,34.045277934618944,139.50194373365244,2031.013563616938,,True
1号泉,岩手県,洋野町,種市第７４地割,40.35739173671205,141.66181889708852,2032.7577730196601,6041452244,False
若木立,秋田県,小坂町,小坂字濁川,40.37440021967533,140.7191999021912,2037.3968384891966,,False
新鼻温泉,東京都,三宅村,阿古,34.04583328119495,139.50194381817946,2038.8026750183112,,True
白糠町源泉,北海道,白糠町,白糠西五条北２丁目,42.96333290781218,144.05194387177596,2040.446538312902,6444305431,False
(能代市大柄),秋田県,能代市,常盤字湯ノ前,40.298125222438166,140.15681693040358,2046.7214591223624,6040315243,False
ダムの湯,岩手県,奥州市,若柳,39.11350305930358,140.9037312211786,2054.4266690671357,,False
白崎温泉,石川県,輪島市,町野町大川,37.44899682208787,137.04749721532667,2055.7610702131174,,False
川股温泉,北海道,登別市,川上町,42.45615791375813,140.9992610877953,2061.393308542421,,False
塩浜温泉,秋田県,男鹿市,戸賀塩浜字漁元崎,39.94349703197643,139.70715304089674,2063.083658098393,5939753621,False
白崎古川,石川県,輪島市,町野町大川,37.448772172425684,137.04768895513408,2064.0276730659857,,False
湯泊温泉,鹿児島県,屋久島町,湯泊,30.23421406187382,130.47763613740196,2065.161209341954,4530238811,True
古岩屋温泉,愛媛県,久万高原町,七鳥,33.66749998706419,132.97305622263949,2068.740944246387,5032470722,False
ポン湯(北見温泉),北海道,北見市,旭東,43.7866920172586,143.64235614862258,2080.4370037294407,6543554114,False
共和町小沢泉源,北海道,共和町,小沢,42.96619993865928,140.6841999330158,2082.4604977416184,,False
湯段,青森県,西目屋村,大字白沢,40.6268886738285,140.25210809998785,2084.1252248041637,6040725011,False
小歩危温泉,徳島県,三好市,尾又,33.897713180100055,133.70676611620357,2087.348742760833,,False
宇部冷泉,岩手県,久慈市,宇部町,40.14900001810165,141.83079994332064,2090.2146175558405,,False
(美郷町),島根県,美郷町,久喜原,35.049443787432345,132.51138892396096,2093.7604160487354,5232445044,False
駒形,秋田県,能代市,飛根,40.19954406512292,140.1788029985397,2094.9808736294176,,False
逢の浜温泉,東京都,三宅村,神着,34.09858988732197,139.56314590705372,2101.062950073382,,True
那佐泉源,徳島県,海陽町,大字宍喰浦,33.58333308688913,134.3263888787175,2104.914436777018,5034229633,False
下谷温泉,島根県,川本町,大字北佐木,35.022343166970614,132.41991679134628,2105.605279164396,,False
市木,宮崎県,串間市,大字市木下石波,31.451006075820477,131.3677751127243,2109.526581452467,4731124912,False
釜ケ台,秋田県,にかほ市,院内,39.23066391991655,140.0333472709081,2121.8183716878275,,False
つきの木の湯,岩手県,一関市,厳美町字市野々原,39.01351375333292,140.88689996827435,2129.362504347446,5840471042,False
熊野温泉,鹿児島県,中種子町,坂井,30.46506372213027,130.9592829626095,2130.7329845978165,4530575643,True
栗駒高原1号泉,宮城県,栗原市,栗駒沼倉耕英東,38.934714010747626,140.8312391876828,2131.041511081682,5840362621,False
(由利町黒沢),秋田県,由利本荘市,西沢,39.25663298277436,140.0789828172183,2134.022434921739,,False
滝,秋田県,由利本荘市,滝字曲沢,39.354371762316774,140.23253907438828,2135.8122247319393,5940012841,False
ニセコ,北海道,ニセコ町,字ニセコ,42.835300026612224,140.6488002741591,2136.6405399326436,,False
湯川・出途の湯,岩手県,西和賀町,湯川,39.28747201239165,140.77098600127033,2139.6848203654495,5840764123,False
湯殿山ホテル1,山形県,鶴岡市,田麦俣,38.53507815065578,139.958493862435,2140.6906228979583,,False
北滝,宮城県,大崎市,鳴子温泉鬼首字荒湯,38.832374801354526,140.73223104188543,2144.184229999964,,False
元笹小屋・笹小屋跡,山形県,鶴岡市,田麦俣,38.543727941633826,139.96171401183335,2148.556218696866,,False
豊頃温泉,北海道,豊頃町,茂岩新和町,42.804013811306085,143.49816368744115,2153.646176806658,,False
丹生,山形県,鶴岡市,田麦俣,38.54186871498653,139.98276910315175,2161.518767165958,,False
拝所沢,山形県,鶴岡市,田麦俣,38.557600035769845,139.9636002255398,2163.1180970536016,,False
石滝下,山形県,真室川町,大字大沢,38.899671810800555,140.17313910908217,2163.9222956934823,,False
湯殿山,山形県,鶴岡市,田麦俣,38.54136125637634,139.98636115159937,2164.6424332348543,,False
小羽広館,秋田県,由利本荘市,岩野目沢字小羽広,39.37909164881071,140.24727183982606,2166.03254785044,5940015924,False
深川市イルム泉源,北海道,深川市,字音江,43.68608600140299,142.09064199625809,2170.223486459031,,False
白髭温泉,愛媛県,西予市,野村町白髭,33.43333310556212,132.58111107180142,2177.599650144109,5032141634,False
天拝,秋田県,由利本荘市,西沢,39.26480621384146,140.05367194149034,2179.1069254860977,,False
嵯峨山鉱泉,愛媛県,久万高原町,下畑野川,33.67135292813475,132.9653751007117,2183.234084388765,5032470731,False
田屋の湯,秋田県,三種町,下岩川,40.08432178314375,140.15227474889227,2183.346968831818,,False
田茂萢,青森県,青森市,大字荒川,40.69144388804409,140.84670616308705,2184.3306514692936,,False
女釜・男釜,宮城県,大崎市,鳴子温泉鬼首字荒湯,38.8173998322336,140.69010800041394,2185.2692234727783,,False
赤井川村1号泉源,北海道,赤井川村,字旭丘,43.074200221953475,140.80969990936444,2190.7670937377206,,False
弥蛇原,山形県,庄内町,立谷沢本沢,38.5863638419692,140.02395796195353,2194.473299555157,,False
打木温泉,島根県,江津市,松川町市村,35.008258606207065,132.30408979714844,2200.492810067098,5232420434,False
上津井温泉,島根県,江津市,松川町市村,35.008327991607764,132.30410121200367,2200.492810067098,5232420434,False
石鎚山温泉,愛媛県,西条市,西之川,33.80333294787703,133.14888898319907,2201.1180965530248,5033516124,False
血の池・血の池沢,宮城県,大崎市,鳴子温泉鬼首字荒湯,38.81303601480375,140.7028780803882,2202.0935298340346,,False
井戸沢,青森県,平川市,大字葛川,40.5281918979096,140.74755807907837,2202.764779224169,6040653924,False
(須崎市),高知県,須崎市,上分,33.39527798878059,133.2099998651969,2203.0932394151923,5033017624,False
奥の院,宮城県,大崎市,鳴子温泉鬼首字荒湯,38.81222986325026,140.7044637658929,2206.3264224578284,,False
宝泉坊温泉,愛媛県,西予市,城川町高野子,33.364663769492786,132.79452500247342,2206.6710856153127,5032063343,False
千原温泉,島根県,美郷町,千原,35.08439708432201,132.65013099627652,2209.0734388854353,,False
戸井町泉源1号井,北海道,函館市,新二見町,41.72956874076664,141.0312390116776,2213.5422653141222,6241407241,False
赤沢,宮城県,大崎市,鳴子温泉鬼首字荒湯,38.81167298648839,140.68913809727158,2216.81784971631,,False
(鬼首地熱発電所),宮城県,大崎市,鳴子温泉鬼首字荒湯,38.80988304411988,140.70860622272102,2219.493666300953,,False
かずら橋温泉,徳島県,三好市,,33.87944379427319,133.82694394478756,2232.1156957449903,5033665631,False
鶴居グリーンパーク泉源,北海道,鶴居村,鶴居北１丁目,43.240833012123744,144.32499966496738,2234.402305831305,6444628544,False
硫黄鉱山浴場,宮城県,大崎市,鳴子温泉鬼首字荒湯,38.8066669862699,140.7064389950098,2235.3769927873577,,False
大穴,青森県,黒石市,大字二庄内,40.58365513389956,140.71706381172487,2243.0369162106476,,False
保呂瀬,秋田県,五城目町,馬場目,39.910883193801695,140.20496119702045,2243.8420626237967,,False
仁吾平,秋田県,小坂町,小坂字仁吾平,40.39462473270437,140.74931371701527,2248.9437237753846,6040457924,False
かつら荘,秋田県,横手市,大森町坂部字矢走,39.374222136271,140.2661717233555,2248.956038657476,5940024134,False
広晴山下流,宮城県,大崎市,鳴子温泉鬼首字荒湯,38.80350299817222,140.70510294066844,2252.6284787939826,,False
三又,秋田県,横手市,山内三ツ又字甲下村,39.20792182257818,140.72690795985102,2255.3049752459997,,False
北有珠温泉1号,北海道,伊達市,北有珠町,42.53419976482414,140.80599994169694,2256.0944628967018,,False
邦和京極温泉,北海道,喜茂別町,字喜茂別,42.81069988807633,140.93930018289967,2258.920064082802,,False
知内町元町泉源,北海道,知内町,字元町,41.579525223860244,140.41516911363595,2262.9524454126386,,False
新次郎鉱山第2号鉱,徳島県,神山町,神領,33.942778053257605,134.32777795462988,2277.3800131285375,,False
面河温泉,愛媛県,久万高原町,笠方,33.73666705292161,133.02138926642203,2282.606503723084,,False
茂谷,秋田県,能代市,梅内字黒瀬,40.31843896453234,140.22605299953128,2283.6625122053515,6040318811,False
パストラル55泉源,北海道,倶知安町,字樺山,42.851699825281976,140.70370002605114,2285.1431023305395,6440252612,False
酒谷温泉,島根県,美郷町,酒谷,35.04802497319148,132.7013422092989,2287.9121584320515,5232455633,False
比婆山温泉,広島県,庄原市,西城町熊野,35.0250177430942,133.1181597596441,2302.648769971551,5233402934,False
鹿子,秋田県,大仙市,太田町川口字千本野,39.49975291942999,140.66514196765547,2308.72165642635,,False
断魚渓温泉,島根県,邑南町,井原,34.93015330335614,132.4732611967199,2311.7125442690385,5232331742,False
平館不老不死,青森県,外ヶ浜町,字平舘根岸湯の沢,41.150127941231524,140.63270609309768,2313.5110937794893,6140558021,False
倉の沢,岩手県,宮古市,刈屋,39.64668896500269,141.7487389435954,2320.203324409472,,False
華山(一の俣)温泉,山口県,下関市,豊田町大字佐野,34.261238973533736,131.05814200824042,2321.602602131311,5131301423,False
早稲田,青森県,三沢市,朝日２丁目,40.76278920014776,141.3589609449888,2331.486114322089,,False
鬼首,宮城県,大崎市,鳴子温泉鬼首字下田中前,38.786205984473945,140.68307183588345,2332.7655662812954,5840154423,False
神滝,宮城県,大崎市,鳴子温泉鬼首字荒湯,38.793056093678715,140.69412209341098,2337.0063274013696,,False
十二滝,山形県,酒田市,北俣字岩代,38.9215111700676,140.04046892284697,2337.419955985654,,False
寒水沢,青森県,青森市,大字荒川,40.67920287396136,140.82997822857507,2340.5070819285497,6140061632,False
今神・念仏,山形県,大蔵村,大字南山鍵金野,38.632177970081315,140.14119710693006,2344.1962657308113,,False
月ヶ谷温泉,徳島県,上勝町,大字福原,33.88529305001298,134.41811392986483,2344.2902119192177,5034636312,False
桂温泉,秋田県,鹿角市,八幡平,40.05345289486916,140.81543889060805,2344.52122598476,,False
北月山荘,山形県,庄内町,立谷沢瀬場,38.63465799117844,140.0059669931416,2347.6494107526323,,False
かすみ,秋田県,由利本荘市,及位字長根山,39.42820284237227,140.1890280466553,2358.0761829401185,,False
湯抱温泉,島根県,美郷町,湯抱,35.09406312972888,132.56747807879816,2358.772441499383,5232541514,False
湯の瀬,山形県,鶴岡市,戸沢,38.63780029845868,139.7042360666774,2358.7971932811147,5739756632,False
北電(株)望岳荘泉源,北海道,ニセコ町,字曽我,42.8359999875082,140.67669991742483,2358.8001405463647,6440250413,False
白木川内,鹿児島県,出水市,上大川内,32.0568579786386,130.45555621982777,2368.007737815162,4830036634,False
津波敷温泉,山口県,下関市,豊北町大字矢玉,34.26583314969265,130.8966670086946,2368.5187721989805,5130371143,False
源泉B,秋田県,大館市,大葛,40.126508217936326,140.67833118679047,2374.2815904651848,,False
(仙北町水上の沢),秋田県,大仙市,大沢郷宿字八木山,39.488258062398096,140.3112137884935,2378.58757421255,,False
洞爺村1号泉源,北海道,洞爺湖町,字洞爺町,42.638244053963874,140.82201881832628,2382.8434850005387,6340766542,False
真浦温泉,石川県,珠洲市,真浦町,37.47172806987278,137.09343905313767,2387.5503975310326,5637106732,False
ラジウムの湯,岩手県,北上市,和賀町岩崎新田,39.21265582364173,140.88814187806383,2394.074990178515,,False
久部温泉,島根県,大田市,三瓶町（志学）志学,35.11166704403434,132.61638889704278,2396.3469049554724,,False
三内峡,秋田県,秋田市,河辺三内字砂子渕,39.741061260545095,140.31641103490944,2396.3749709043364,,False
蟹沢,宮城県,大崎市,鳴子温泉鬼首字荒湯,38.78400317656,140.699502995014,2396.4127933503314,5840154522,False
種川温泉,北海道,今金町,字稲穂,42.4197749994997,140.06778102902496,2404.9664199443528,6340500514,False
(角館町冷水沢),秋田県,仙北市,角館町広久内合野,39.608433017970725,140.65128326475434,2405.237936771351,,False
柴倉,秋田県,由利本荘市,東由利舘合,39.26703900347299,140.2953421266647,2406.20247846753,5840722321,False
滝之町泉源,北海道,壮瞥町,字滝之町,42.5467997370066,140.89670007292239,2411.315012970834,,False
リーガル鉱泉,福島県,浪江町,大字西台,37.50000007477992,140.99340009677704,2426.791125780476,,False
高倉の湯,岩手県,雫石町,西根上篠崎,39.77519628014366,140.93021799957427,2427.5403570010453,,False
渓泉,大分県,国東市,赤根,33.6064970237166,131.5858170177156,2435.9300612167985,5031342644,False
乙部町鳥山泉源,北海道,乙部町,字鳥山,41.995928032921164,140.12546382959727,2446.0239851104357,6240719031,False
鹿野川温泉,愛媛県,大洲市,肱川町予子林,33.447663748545594,132.68519706968635,2448.0383670735623,5032153442,False
岩内,北海道,岩内町,字野束,42.95008126546426,140.51583523107902,2450.774760673305,6440344112,False
寒湯,宮城県,大崎市,鳴子温泉鬼首字上ノ台,38.864273004854404,140.66369489105327,2452.9812735266946,,False
砂子沢,秋田県,小坂町,小坂字砂子沢,40.36298622518468,140.7389503078693,2455.0074193055934,6040453931,False
源泉2,秋田県,湯沢市,秋ノ宮,38.96002195170516,140.5401888444703,2457.7574848130976,,False
双葉,福島県,大熊町,大字野上字諏訪,37.407600065025434,140.94759995738949,2458.3384367408203,,False
栃久保,青森県,十和田市,大字法量,40.58547515018769,141.02416367588808,2459.919355679553,6041700124,False
古寺,山形県,大江町,大字貫見,38.302613964204326,139.9705361257099,2467.274628816653,,False
草薙2号泉,山形県,戸沢村,大字古口土湯,38.76486102972264,140.05351380658746,2469.6688486004273,5840101434,False
吾平,鹿児島県,鹿屋市,下名,31.2792313840865,130.8800859527796,2474.47150083844,,False
余市フゴッペ川温泉,北海道,余市町,栄町,43.14978094906303,140.86565007646075,2475.774919806328,6440567934,False
高佐温泉,山口県,萩市,大字高佐上,34.474530046658856,131.61396124941146,2476.553477547203,5131546933,False
紅葉川温泉,徳島県,那賀町,大久保,33.79744997658555,134.44598399345307,2478.05217528192,5034535541,False
もみじ川温泉,徳島県,那賀町,大久保,33.797433138606614,134.44604904671047,2478.05217528192,5034535541,False
三隅温泉,島根県,浜田市,三隅町井野,34.784068816126684,132.0312672205501,2480.5896313393782,5232104212,False
小藪鉱泉,愛媛県,大洲市,肱川町宇和川,33.4526248732164,132.66832210792438,2484.604678743953,5032154314,False
ひばごん郷温泉,広島県,庄原市,西城町三坂,35.0503538172571,133.18735793382868,2488.4570729543007,5233416422,False
大湯沼,北海道,登別市,登別温泉町,42.50216101051589,141.1469751116885,2488.463691038932,,False
湯の浜温泉,東京都,三宅村,伊ヶ谷,34.086978769958165,139.48237300906283,2493.255748758128,,True
(大正町),高知県,四万十町,江師,33.21527804950051,132.97138914622238,2495.503040540335,4932675743,False
葛川,青森県,平川市,大字小国,40.526072011244885,140.71879691310465,2500.8480983612617,6040653721,False
池田ラジウム鉱泉,島根県,大田市,三瓶町（池田）池田,35.14412827950476,132.55701675027822,2503.510268064162,5232547423,False
池田ラジウム泉,島根県,大田市,三瓶町（池田）池田,35.14411117462488,132.55708191739444,2503.510268064162,5232547423,False
3号泉,島根県,大田市,三瓶町（池田）池田,35.1441201141439,132.55692128002204,2503.510268064162,5232547423,False
5号泉,島根県,大田市,三瓶町（池田）池田,35.14410300157204,132.55700695105423,2503.510268064162,5232547423,False
8号泉,島根県,大田市,三瓶町（池田）池田,35.144119916201284,132.55702818505824,2503.510268064162,5232547423,False
馬場内の湯鉱泉,福島県,浪江町,大字加倉,37.497700067920256,140.95521430670766,2513.2450675981668,,False
鳥海荘,秋田県,由利本荘市,鳥海町猿倉,39.16847207277969,140.13346380194392,2516.324535918858,5840610021,False
(東成瀬村谷地),秋田県,東成瀬村,椿川字谷地,39.108375094204284,140.7208832676008,2518.8473656074384,5840553721,False
フゴッペ温泉森林村,北海道,余市町,栄町,43.147678018982575,140.87498603528837,2519.851194660023,6440567942,False
魚切渓温泉,島根県,美郷町,都賀本郷,34.964247046577775,132.6572689395945,2521.5809092961395,5232355241,False
最上観光2号泉,山形県,最上町,大字富沢笹森,38.738293876571234,140.5925469741293,2523.4913277189457,,False
波積本郷温泉,島根県,江津市,波積町本郷,35.0304979653558,132.32778490871135,2524.9725676885987,5232423631,False
羽根沢,山形県,鮭川村,大字中渡温泉,38.815194087620654,140.15149998707608,2531.8046891854906,5840117233,False
川西,北海道,京極町,字三崎,42.83999989576482,140.8899999255295,2537.630334444605,,False
間欠泉,宮城県,大崎市,鳴子温泉鬼首字神明上,38.800886345642574,140.66963897968444,2539.121644399085,5840156321,False
小田代源泉,岩手県,宮古市,田老,39.72174194931817,141.92932194757313,2544.235335724918,,False
深瀬温泉,愛媛県,大洲市,肱川町予子林,33.44830009662348,132.69152830521026,2544.75324945925,5032153534,False
沖浦,青森県,黒石市,大字袋,40.57157797405488,140.68547201902948,2546.294817410633,6040658442,False
玉の湯鉱泉,福島県,大熊町,大字野上字湯の神,37.41483326662674,140.91208873336288,2546.6959018965235,,False
えびの高原荘,宮崎県,えびの市,大字末永えびの高原東,31.946388797022628,130.84266367276888,2553.2261642529224,4730763732,False
岩井戸の湯鉱泉,福島県,富岡町,大字上郡山字岩井戸,37.32135799169843,140.977974914774,2554.0702178201814,,False
大沼,北海道,七飯町,字大沼町,41.9649999929275,140.68350000741913,2557.5567002066177,,False
岩伏温泉,鳥取県,日南町,阿毘縁陰地側,35.18922884625362,133.17695492552824,2560.4116917594556,,False
石抱,山形県,大蔵村,大字南山金山,38.59505612185144,140.16966091247767,2563.3186423714014,,False
天狗湯2号,山形県,小国町,大字小玉川,37.92589996649665,139.6696891051348,2564.4588061223735,,False
高尾の湯,広島県,庄原市,西城町高尾,34.99972195096354,133.16583298982653,2564.5568186587075,,False
保戸沢の湯,岩手県,八幡平市,荒屋地区,40.10223104050567,141.0599361100881,2564.734404768702,,False
本別,北海道,鹿部町,字本別,42.06730018582093,140.77530015310063,2569.462610398647,,False
曽々木温泉,石川県,輪島市,町野町曽々木皆戸,37.45957489908935,137.07743327812585,2571.5277242618085,5637105611,False
(柳田村),石川県,能登町,字黒川,37.36489680912055,137.04260022969015,2577.582159570719,5637003334,False
新飯豊鉱泉,山形県,小国町,大字小玉川,37.95331121502468,139.6648637875609,2577.6924827941134,,False
愛の森温泉,愛媛県,大洲市,肱川町山鳥坂,33.457222062925446,132.69500006224885,2578.5957941207444,5032154543,False
二庄内,青森県,黒石市,大字板留,40.58191118512981,140.69251696585332,2579.996473317527,,False
支笏グランドホテル,北海道,千歳市,奥潭,42.77094687888421,141.27041888330365,2590.824260261618,,False
芸北温泉,広島県,北広島町,細見,34.72185799484183,132.2971919360884,2592.169160927527,,False
秋の宮・鷹の湯,秋田県,湯沢市,秋ノ宮,38.955457699529184,140.53845323920982,2592.6534270211896,5840344331,False
雪沢,秋田県,大館市,茂内,40.29817696914648,140.64229888842002,2594.209870051125,6040355134,False
柳沢,青森県,七戸町,字宇道坂,40.78538893168948,141.18696405199324,2601.0118867967353,,False
上畑,秋田県,横手市,増田町狙半内字上畑,39.12406406905674,140.6470362793849,2603.9493077759093,,False
ぬくもりの湯,岩手県,雫石町,長山岩手山,39.80534977780364,140.9461498705529,2608.2239799649174,,False
末吉道ヶ沢温泉,東京都,八丈町,末吉,33.07932691021792,139.85073193837277,2610.3429853761963,4939469831,True
太田町所有源泉,秋田県,大仙市,太田町川口字千本野,39.505024933091015,140.65636409055406,2614.1453652065416,,False
神郷温泉,岡山県,新見市,神郷高瀬上野新田，下野新田,35.079715995805905,133.34508115533646,2615.949362391241,5233429741,False
杢蔵,山形県,新庄市,金沢,38.78499297903643,140.39665811104766,2617.900489369069,,False
関一号泉,青森県,田子町,大字関,40.29165797607695,141.04649679786232,2618.4498179455904,6041304343,False
成川鉱泉,愛媛県,鬼北町,大字奈良,33.224127887493786,132.62534616792826,2619.274133674749,,False
小安,秋田県,湯沢市,皆瀬,39.00233607621549,140.66916418248874,2619.4839616784166,5840450323,False
網走観光ホテル,北海道,網走市,字大曲,43.99225594409955,144.22445781031922,2624.7441051058836,,False
カトロ温泉,愛媛県,宇和島市,蒋渕,33.19583317634887,132.40792174616354,2625.0523050993825,4932633223,False
文治ヶ駄馬鉱泉,愛媛県,西予市,野村町河西,33.35714408184658,132.6149920277541,2627.329359057558,,False
赤川荘,大分県,竹田市,久住町大字久住,33.066789987080035,131.23271112819305,2632.8293031321036,,False
夷谷温泉,大分県,豊後高田市,夷,33.60613620090685,131.56328607889574,2640.8028631166067,5031342531,False
軍川,北海道,七飯町,字大沼町,41.97950013379415,140.6965002575233,2641.6640028158167,6240757541,False
泡の湯,山形県,小国町,大字小玉川,37.95264176474752,139.69812206301893,2641.796510286112,,False
法華院,大分県,竹田市,久住町大字有氏,33.096641866770895,131.25492787885477,2646.8273369354624,,False
御岳の湯,岩手県,岩手町,大字葉木田,39.999444027173865,141.15525610354453,2650.692320961138,,False
大石の湯,岩手県,西和賀町,耳取,39.296638838587896,140.83641092950188,2657.1964944579063,5840765642,False
栗野岳,鹿児島県,湧水町,木場,31.955461318937413,130.7812361063169,2658.9123122860847,4730764232,False
津刈,青森県,平川市,大字久吉,40.4461530206884,140.63993603972432,2673.54144944406,6040553131,False
白鳥温泉泉源,宮崎県,えびの市,大字東長江浦尾八重野,31.979435927634682,130.8305220702394,2674.6966216166115,,False
俵山温泉,山口県,長門市,俵山,34.283611164975085,131.1069437898908,2682.1076625446726,5131304821,False
早口,秋田県,大館市,長坂,40.29929999685473,140.42439989441442,2684.9709522084936,,False
小繋沢,岩手県,西和賀町,小繋沢,39.31071374468822,140.75847490228742,2685.519260578615,5840767023,False
高月鉱泉,愛媛県,宇和島市,野川,33.2173238037448,132.62218660124321,2690.0762296040634,,False
大瀬温泉,愛媛県,内子町,大瀬中央,33.58916685636803,132.7302780581006,2691.9417354245634,5032350832,False
一号泉,青森県,十和田市,大字大不動,40.52749185412376,141.1530499301526,2692.888572864253,6041613213,False
馬の渕温泉,愛媛県,宇和島市,津島町増穂,33.10750000569859,132.5749998536188,2693.9923410013116,4932542544,False
高野鉱泉,山形県,小国町,大字大石沢,37.96333311342075,139.82958125249854,2696.555077238422,,False
銀湯,鹿児島県,霧島市,牧園町万膳,31.93054988538203,130.7995562433994,2696.9351705527315,,False
久住,大分県,竹田市,久住町大字久住,33.0665251519113,131.27786119096257,2698.9880422306287,,False
大黒沢,秋田県,秋田市,雄和碇田,39.51149987085238,140.22190006853992,2701.854540091045,,False
新見千屋温泉,岡山県,新見市,千屋花見,35.16843034126035,133.41095128991077,2702.0785169647143,,False
田麦俣,山形県,鶴岡市,田麦俣,38.57116093910334,139.92565324359174,2702.6750307189573,,False
田代,青森県,西目屋村,大字田代字名坪平,40.56681393092714,140.2935640461493,2703.437156258598,,False
(東藻琴村),北海道,大空町,東藻琴北１区,43.84798108620761,144.2874550359079,2703.851622737293,6544621244,False
大白,青森県,西目屋村,大字大秋字開野,40.59292510269813,140.28308897898688,2707.1114824520164,6040721221,False
菊田旅館,山形県,鶴岡市,羽黒町手向字水呑沢,38.68520803792901,139.98190794224652,2707.331183439732,,False
岩泉・龍泉洞,岩手県,岩泉町,岩泉,39.86044194229389,141.79667201239596,2707.900586859375,,False
藾ケ平,青森県,平川市,大字久吉,40.44519701297026,140.64847506937426,2708.4642451398554,6040553124,False
鷲敷保養センタ一,徳島県,那賀町,朝生,33.83723694600292,134.4964718662793,2722.7855551914017,,False
月山,山形県,庄内町,科沢工藤沢,38.689058263555644,139.98406131584653,2727.1014360920017,,False
湯の平,新潟県,新発田市,滝谷,37.8413581011978,139.58747209815078,2735.1219361740464,,False
筒井温泉,北海道,音更町,十勝川温泉,42.9846972188941,143.2859779461061,2738.5637340360913,6443328222,False
秋の宮・山居野,秋田県,湯沢市,秋ノ宮,38.9595249470954,140.53722803374063,2740.131176557764,5840345222,False
神郷カントリークラブ温泉,岡山県,新見市,神郷高瀬上野新田，下野新田,35.087390183532065,133.34941698282137,2741.8329974963767,,False
湯川・奥の湯,岩手県,西和賀町,湯川,39.275403035761684,140.76935644854032,2743.1824076241046,5840763121,False
若返りの湯,岩手県,雫石町,長山篠ケ森,39.79056094014876,140.9456468060666,2743.8976281199534,,False
鶴沼,北海道,浦臼町,鶴沼第２,43.4504862418399,141.83566694898852,2748.150932872369,6541164622,False
のぞみの湯,岩手県,一関市,厳美町字天王,39.00854974909371,140.98033618952206,2749.5408485328835,,False
口羽温泉,島根県,邑南町,上田,34.862221961313075,132.67194383491528,2759.1282968582263,,False
2号泉,山形県,最上町,大字大堀瀬見１,38.76160002744103,140.39929995439235,2759.990037801164,,False
田沢湖,秋田県,仙北市,田沢湖潟,39.736096934929584,140.70373865800408,2760.702308013527,,False
小屋畑の湯,岩手県,八幡平市,畑地区,40.078500295850496,141.02029982296835,2763.9263493351273,6041009123,False
高橋源泉,山形県,真室川町,大字及位,38.97078110178862,140.34589994507144,2769.955579858749,5840326741,False
白水越,鹿児島県,霧島市,牧園町高千穂,31.91824726385454,130.80959377669885,2772.579244212119,,False
(大方町),高知県,黒潮町,伊田,33.034167161770426,133.0780560613611,2786.908861574324,4933404611,False
厚沢部町上里1号(老人ホーム泉源),北海道,厚沢部町,赤沼町,41.931466752693346,140.2363530235174,2789.4535943264486,,False
田ノ浦,長崎県,平戸市,大久保町,33.400582952088506,129.5271551452597,2793.1222514100155,5029048211,False
杉野浦,新潟県,佐渡市,杉野浦,37.842608156890115,138.37743911336509,2794.3457807165714,5638631011,True
黄金,山形県,大蔵村,大字南山金山,38.607597057419966,140.15160323471213,2795.7179382410777,5740712233,False
折橋,青森県,平川市,大字久吉,40.44331103724602,140.6339060320127,2796.7916653251827,,False
国民保養センターひでこ,秋田県,仙北市,角館町西長野古米沢,39.6202689212024,140.476042024939,2799.8573136186646,5940334813,False
朝日,山形県,朝日町,大字立木,38.23986109686202,139.99665297777776,2800.4220235815633,,False
留寿都,北海道,留寿都村,字泉川,42.74929992299349,140.90569987637485,2801.0188326804887,,False
程ケ平間欠泉,青森県,平川市,大字久吉,40.44419205395253,140.65434987174208,2804.318103598152,6040553214,False
大河内温泉,山口県,下関市,豊浦町大字宇賀大河内,34.213888674243805,130.94916706730393,2806.141703365501,5130275542,False
狼煙温泉,石川県,珠洲市,狼煙町,37.52418889710606,137.32551125291877,2807.6909495626855,5637222633,False
祿剛崎温泉,石川県,珠洲市,狼煙町,37.52434375911512,137.32546864594346,2807.6909495626855,5637222633,False
石神,青森県,むつ市,大字関根字出戸川目,41.36668321586621,141.20915285721188,2808.6806084163345,6241014621,False
山城,鹿児島県,霧島市,牧園町高千穂,31.914311233288117,130.82978904443155,2809.2607882462876,,False
早来町泉源,北海道,安平町,早来北町,42.759803008283896,141.78547525514287,2817.84453869197,,False
野之湯,鹿児島県,霧島市,牧園町万膳,31.917894208842736,130.7976469891191,2819.610825667154,,False
文治ヶ駄鉱泉,愛媛県,西予市,野村町河西,33.35911121472997,132.616782855273,2820.5502409412757,,False
飯豊鉱泉,福島県,喜多方市,大字一ノ木字川入乙,37.79117511162915,139.78459994139638,2821.665620030184,5639564244,False
山王の湯2号,岩手県,一関市,厳美町字下り松,38.97667812086117,140.92721859244932,2821.989332156554,5840377411,False
長万部,北海道,長万部町,字大浜,42.4933001786236,140.351699816536,2824.9318458159055,6340529811,False
ヒメカ湯,岩手県,金ケ崎町,永栄,39.11571672934408,140.94419194720666,2825.50075381131,5840573543,False
金湯,鹿児島県,霧島市,牧園町万膳,31.91719222837733,130.7985888833151,2825.580519296468,,False
湯之野,鹿児島県,霧島市,霧島田口,31.890282898063642,130.86193894157734,2845.961980668408,,False
川入鉱泉,福島県,喜多方市,大字一ノ木字川入乙,37.78946888224265,139.7855390489169,2847.965191641003,5639564242,False
升玉,山形県,大蔵村,大字赤松升玉,38.654883035432,140.2093830994196,2852.73135771474,5740718641,False
(三宅村),東京都,三宅村,伊ヶ谷,34.08472186807797,139.48250007091647,2862.04360415642,,True
田代温泉2号,北海道,今金町,字田代,42.41630024011878,140.01999994101715,2862.718137934777,,False
小屋原温泉,島根県,大田市,三瓶町（池田）小屋原,35.1586991347397,132.5920959742858,2873.251802518322,,False
本別温泉グランドホテルA,北海道,本別町,新町,43.13139303551481,143.5886913056015,2875.1421893699835,6443545733,False
白川ダム鉱泉,山形県,飯豊町,大字数馬,37.92929200861698,139.90090345277963,2875.5011973438686,5639771231,False
淋代平源泉、住友化学三沢工場給湯施設,青森県,三沢市,根井,40.733650238086135,141.35845625017777,2877.288559687645,,False
曲川,山形県,鮭川村,大字曲川下芦沢,38.839199913681625,140.18564985627484,2879.9069341830896,,False
太良湯,鹿児島県,霧島市,牧園町万膳,31.92204704367514,130.7849438685252,2880.0719446589105,,False
割湯,秋田県,湯沢市,皆瀬,39.005858052888385,140.66329411052192,2881.683440711595,5840450331,False
滝の上,秋田県,大仙市,南外,39.411274989894075,140.3668829448662,2888.7669526010936,,False
支笏丸駒温泉,北海道,千歳市,幌美内,42.779763846361405,141.31004975729462,2889.1532672225817,,False
温泉津温泉,島根県,大田市,温泉津町福光,35.07000022362567,132.3480559975941,2890.2401537120563,5232428724,False
轟の湯2号,宮城県,大崎市,鳴子温泉鬼首字神明上,38.79659400845326,140.66508865905126,2892.3085243240293,5840155331,False
遠部,青森県,田子町,大字茂市,40.28120006019829,141.07889973076442,2894.388296365293,6041303634,False
手洗温泉自然湧出熱水,鹿児島県,霧島市,牧園町高千穂,31.91248876864731,130.8138434989936,2895.3934627018116,,False
岩崎,青森県,深浦町,大字沢辺,40.58691089740087,139.91169398569517,2895.8612160166786,6039770224,False
(広河原湯の沢),福島県,喜多方市,大字相田,37.82656898422329,139.90837501142303,2903.645636354537,,False
訓子府町泉源,北海道,訓子府町,若富町,43.726111148672956,143.722222170901,2905.851304231701,,False
津黒高原温泉,岡山県,真庭市,蒜山下和津黒,35.26027815947451,133.79472175951423,2910.5686250510594,,False
大朝温泉,広島県,北広島町,大字宮迫,34.79057603353293,132.47994328093404,2919.113065286914,,False
第2温泉,愛媛県,四国中央市,新宮町馬立,33.9320032552058,133.5962029906773,2921.9238775379094,,False
佐賀温泉,高知県,黒潮町,荷稲,33.137256327983295,133.12506682971258,2925.137719957018,,False
君田温泉,広島県,三次市,君田町西入君,34.901068805880044,132.85016621949163,2928.051291078121,5232268811,False
豊羽鉱山,北海道,南区,定山渓,42.98245808169044,141.03971096678723,2929.4688681268776,,False
吾妻,青森県,深浦町,大字深浦,40.66002214569321,139.938480943317,2930.9671121920883,6039779511,False
雄和町ふるさと温泉,秋田県,秋田市,雄和神ケ村,39.51618621557854,140.21809168052295,2933.8493559674257,5940211734,False
小滝,秋田県,仙北市,西木町桧木内,39.75387524429653,140.6020109397173,2944.6416122018722,5940540813,False
三瓶温泉,島根県,大田市,三瓶町（志学）志学,35.11550803824751,132.62763614138757,2946.0671428896353,5232553033,False
伝兵衛湯,秋田県,由利本荘市,岩城下黒川,39.47988596964603,140.07967499982323,2958.49496020031,5940107632,False
直川鉱泉,大分県,佐伯市,大字赤木,32.872036247843106,131.78486588590795,2959.5438577006107,,False
高倉山,岩手県,花巻市,下シ沢,39.45708604657634,141.00206124839693,2963.2308051788714,5941104033,False
本道寺,山形県,西川町,大字本道寺,38.451360962967804,140.05961699433567,2982.518451868353,,False
(角館町抱返),秋田県,仙北市,角館町広久内合野,39.609603005956245,140.6420561379174,2983.3244708140387,5940353112,False
坂本,山形県,酒田市,山元,38.84722481428353,140.01658620996272,2983.426092872808,5840201132,False
鉾投,鹿児島県,霧島市,牧園町高千穂,31.909588861446263,130.80685003572154,2991.5756918994443,,False
大明神,秋田県,大館市,雪沢,40.30336102568395,140.6569561099405,2993.5131398404355,6040356223,False
白水,大分県,由布市,大字阿蘇野,33.1193082168879,131.3130469847461,2995.5037742763952,4931524513,False
平兵湯,秋田県,由利本荘市,鳥海町上笹子字野宅,39.09280327592762,140.25622515612778,3006.476918693701,5840521012,False
伊古木温泉,和歌山県,白浜町,大字塩野,33.55300788431289,135.46011695561742,3006.517480735559,5035236624,False
一宇温泉保養センター,徳島県,つるぎ町,一宇,33.95444497486546,134.07045892166306,3007.1567169263562,,False
大滝,山形県,小国町,大字大滝,38.02352195726934,139.76152513489964,3008.254572418814,5739062044,False
協和,秋田県,大仙市,協和船岡字上庄内,39.67959985466277,140.3814082131026,3009.623868308924,5940431041,False
瀬の本,熊本県,南小国町,大字満願寺,33.08041370457395,131.16455789910512,3021.6852451889426,,False
台ケ鼻温泉,新潟県,佐渡市,米郷,37.96769199840867,138.25306881023366,3022.5096021414465,,True
川上温泉(22年井),北海道,京極町,字更進,42.83076895515797,140.893336327737,3023.1069768890375,6440179132,False
一宇温泉,徳島県,つるぎ町,一宇,33.95443703790233,134.07041625856277,3024.0264356487905,,False
(串本町),和歌山県,串本町,江田,33.4938918211671,135.69931119237074,3026.196548862889,5035159524,False
(室戸市),高知県,室戸市,浮津,33.30666675413538,134.13083326591394,3026.7342777985023,,False
菱刈鉱山,鹿児島県,伊佐市,菱刈前目,32.01237201993782,130.69308295185564,3027.3879117817078,,False
観音湯・清川,山形県,庄内町,清川川端,38.79715301449444,140.03025628743296,3039.9333930485755,,False
挙の川鉱泉,高知県,黒潮町,荷稲,33.13711826334054,133.12506789951587,3042.9571363294426,,False
鯉クラブ,秋田県,五城目町,内川黒土,39.95289707133781,140.16905292413045,3047.7415658318328,,False
赤井川,北海道,赤井川村,字赤井川,43.08950032331893,140.8187000454636,3055.5842501872266,,False
川内共同浴場,鹿児島県,薩摩川内市,湯田町,31.91548144408598,130.25662793681747,3057.559003405718,4730629043,False
湯田薬師,岩手県,西和賀町,湯本,39.331978166300345,140.77696110526705,3069.687404453329,,False
斉藤源泉,山形県,庄内町,肝煎生繰沢,38.76825828264729,140.02145814914283,3073.146379921042,,False
極楽沢,山形県,戸沢村,大字津谷金打坊,38.714222019407984,140.1952217967451,3078.5194728278548,,False
田子,青森県,田子町,大字原,40.322688834715905,141.14010298393697,3084.224764594278,6041318131,False
鷹の巣,新潟県,関川村,大字大内淵,38.07010618501553,139.5982529710992,3084.2724326862885,,False
津川カントリークラブ,新潟県,阿賀町,田沢,37.619371828907155,139.52076683421214,3085.5045137468856,,False
ジュネス休養センター,秋田県,東成瀬村,岩井川字東村,39.17297195864822,140.71170837036814,3102.7228335535583,5840650644,False
小屋鉱泉,山形県,飯豊町,大字小屋,37.88613626304427,139.92516888452394,3109.9960405652023,5639676413,False
筍沢,山形県,鶴岡市,羽黒町手向字手向,38.71513613591169,139.9795579164394,3121.3216911153536,,False
小津黒温泉,岡山県,真庭市,蒜山下和野辺,35.264623168629676,133.7904839866325,3122.2672137483946,5233761331,False
川渡温泉,愛媛県,愛南町,中川,32.95305619623714,132.6261110760612,3122.7458340413273,4932354013,False
花の湯・浪花,秋田県,美郷町,浪花字田ノ沢,39.44926121829977,140.62534670289168,3125.1426374803905,,False
社台,北海道,白老町,日の出町２丁目,42.57430000120162,141.36700013697623,3126.3585195972323,,False
(いの町),高知県,いの町,中追,33.60777824734271,133.37972182556243,3128.235392896021,5033332034,False
湯野田,山形県,遊佐町,吹浦湯ノ田,39.08503111953982,139.87290807729292,3129.108297122542,5839560922,False
秋の宮・湯の岱,秋田県,湯沢市,秋ノ宮,38.96205807690487,140.52866696542833,3132.632325437983,5840345214,False
清水鉱泉,愛媛県,鬼北町,大字生田,33.310833213065074,132.69305609331266,3142.3502004996653,4932757514,False
伊保内,岩手県,九戸村,大字荒谷,40.197358055244855,141.41030028618098,3146.7023290591346,6041233242,False
ウィンデック相生温泉,徳島県,那賀町,谷内,33.835277986792946,134.4658328227427,3154.7222898764303,5034630712,False
浜名沢一号泉,青森県,今別町,大字浜名,41.17899997311737,140.46366708863894,3156.201566858248,6140631713,False
仏沢温泉,秋田県,美郷町,金沢東根字北外川原,39.433088790473356,140.6182441108997,3159.9878764128835,,False
湯本3号井,岩手県,北上市,和賀町煤孫,39.23974679551919,140.9818334693227,3165.467090224646,5840678843,False
寂地(そうづ峡)温泉,山口県,岩国市,錦町深川字小山西,34.31368575947024,131.9891357856328,3166.7093161175308,5131377931,False
追分,宮城県,石巻市,女川,38.58151880507061,141.36773101713467,3167.3992702571936,,False
長重,秋田県,北秋田市,今泉,40.21312197288602,140.30339193716134,3169.6456767369828,6040225432,False
男鹿湯本・湯本,秋田県,男鹿市,北浦湯本字草木原,39.97243598333403,139.74216399208865,3170.1173448667537,5939756932,False
(七尾市),石川県,七尾市,能登島別所町,37.127699759097396,136.97383110499456,3171.322512547257,,False
多々羅温泉,愛媛県,今治市,上浦町甘崎,34.25468621749737,133.0460888388784,3179.8528035674913,,False
樫立向里温泉,東京都,八丈町,樫立,33.07618294640114,139.79066697210274,3183.1522512295583,,True
上浦温泉,愛媛県,今治市,上浦町井口,34.25704669539239,133.04869702373256,3191.3279093239494,5133300344,False
美霞洞温泉,香川県,まんのう町,勝浦,34.09708402091146,134.0034029994049,3205.858761246867,,False
六郷町,秋田県,美郷町,六郷東根字上荒川,39.40941117714906,140.6141998933071,3207.7543626431425,5940049911,False
村上源泉,山形県,酒田市,小林,38.8336081842121,140.01031689587197,3207.819988303122,5840200022,False
大谷温泉,島根県,益田市,大谷町,34.64771614072924,131.87413124378799,3212.0067076666364,,False
小国,熊本県,小国町,大字上田,33.135702008886405,131.12831812666795,3215.163732984609,,False
湯ノ台,秋田県,にかほ市,象潟町長岡,39.19346106890535,139.96191707783586,3216.0120177582635,5839673622,False
(神津島村),東京都,神津島村,錆崎,34.22177490700679,139.12870799005444,3227.389364821898,5139216032,True
神津島温泉,東京都,神津島村,錆崎,34.22108878155208,139.13024388035055,3227.389364821898,5139216032,True
錆崎温泉,東京都,神津島村,錆崎,34.2210287291869,139.13027617066788,3227.389364821898,5139216032,True
芽室,北海道,芽室町,北芽室,42.94194385170792,143.03388918819013,3230.635718990157,,False
美又温泉,島根県,浜田市,旭町丸原後谷,34.89521996080681,132.23936802613125,3235.869499975947,5232217913,False
SPA羅漢温泉,広島県,廿日市市,中道,34.388099030061205,132.10543417256284,3237.4957953423614,,False
羅漢温泉,広島県,廿日市市,中道,34.38809874220754,132.1054880832,3238.241895534296,,False
網走湖畔,北海道,網走市,字呼人,43.96833321749055,144.22027793622252,3243.3793425243607,,False
雨飾温泉,新潟県,糸魚川市,大字根小屋,36.9202419569455,137.9543859081805,3246.1168672374556,,False
蒲原温泉,長野県,小谷村,大字北小谷,36.868658013685824,137.8736129914132,3248.1193074112666,,False
大井沢,山形県,西川町,大字月岡,38.392257891647155,139.99499198953464,3248.4713389024078,5739477921,False
新庄,山形県,戸沢村,大字津谷金打坊,38.717967090174575,140.19493920672994,3250.5575694183285,5840016521,False
梶山温泉,新潟県,糸魚川市,大字根小屋,36.93532299545655,137.93617895011394,3251.9454911829034,,False
倉沢,山形県,鶴岡市,倉沢,38.52636701800285,139.77988918248374,3255.1612162030747,5739663212,False
海峡保養センター,青森県,大間町,大字大間,41.521184827430524,140.92034378416298,3261.6009463118644,,False
馬立温泉,愛媛県,四国中央市,新宮町馬立,33.92362507850411,133.6408348224628,3261.904439540666,,False
橋立荘,福島県,金山町,大字越川字反間,37.4299887385677,139.48460607226215,3270.938894154838,5639131842,False
柳原源泉,山形県,金山町,大字有屋柳原,38.912860879352834,140.38874180978206,3272.7446854926143,5840239131,False
はげの湯,大分県,九重町,大字菅原,33.153341056698885,131.14109362421783,3272.7730942375424,4931518114,False
田沢,秋田県,仙北市,田沢湖生保内,39.74880287367747,140.7238329410997,3275.241829500566,5940459744,False
下前田,秋田県,北秋田市,阿仁前田,40.07075013698948,140.41391700270475,3275.467984838188,6040038313,False
高尾,秋田県,秋田市,雄和左手子,39.54317202721293,140.20663611913798,3276.5270075135613,5940215621,False
湯原温泉,長野県,小谷村,大字北小谷,36.864361064197944,137.88010823506974,3288.5106336110516,,False
白狐,秋田県,由利本荘市,岩城泉田,39.51651115190336,140.09862477677964,3293.6958725439276,5940201744,False
宮浦,宮崎県,日南市,大字富土小目井,31.671331062895806,131.44824193610964,3306.5844382419978,4731430542,False
北俣沢冷泉,長野県,小谷村,大字中小谷丙,36.82300629185788,137.85642797100664,3310.3541966153025,,False
唐松沢上流冷泉,長野県,小谷村,大字中小谷丙,36.80777775257273,137.83583312359855,3311.701453591538,,False
長命の湯・新赤倉,山形県,最上町,大字満沢満沢１,38.72717184991265,140.5099140561836,3312.217817294793,5840047024,False
江差町泉源,北海道,江差町,字大澗町,41.89550000734047,140.14530005145136,3312.500734458895,,False
蓮華温泉,新潟県,糸魚川市,大字山之坊,36.80817184109196,137.80000613939131,3313.1227623372147,,False
池鉈温泉,東京都,新島村,式根島,34.31805598099957,139.21583337058343,3314.0019913959204,,True
昆布川温泉病院2号井,北海道,蘭越町,字黄金,42.801132049702154,140.60340796766906,3323.5313613475114,6440146812,False
日電計源泉,東京都,新島村,式根島,34.334166948415664,139.21166715845555,3324.1078490120117,,True
日置川温泉,和歌山県,白浜町,大字向平,33.627605007076276,135.47296888083744,3337.337229404936,,False
吉尾,熊本県,芦北町,吉尾,32.32928116208555,130.59523628144032,3337.4867480042926,4830349741,False
白馬温泉,長野県,小谷村,大字北小谷,36.875458236280416,137.86957817896115,3339.8570999356443,,False
比和温泉,広島県,庄原市,比和町比和,34.9895009564843,132.99496134708522,3341.1371664339463,5232378941,False
玉の湯,岩手県,二戸市,浄法寺町飛鳥,40.169414209914336,141.13673620208644,3348.1508476783515,,False
栗谷温泉井,大分県,由布市,大字川西,33.21451110617016,131.3021919414772,3348.497571780619,4931625431,False
赤滝?源泉,福島県,北塩原村,大字檜原字早稲沢,37.756858013908236,140.11072511969147,3353.5154812941514,,False
鐘釣温泉,富山県,黒部市,宇奈月温泉,36.73777825135114,137.6499999530157,3353.892073365612,,False
福の湯,岩手県,花巻市,下シ沢,39.45250270850235,141.00478587327612,3353.9266174120266,,False
比田温泉,島根県,安来市,広瀬町梶福留,35.25098886029571,133.16140388255494,3357.7668654933286,5233710222,False
(安来市),島根県,安来市,広瀬町梶福留,35.250832830352,133.1611110911912,3357.7668654933286,5233710222,False
紫尾共同浴場,鹿児島県,さつま町,紫尾,31.97417498246567,130.43011373893333,3369.061895992272,4730736434,False
蒜山高原温泉,岡山県,真庭市,蒜山下長田西原,35.29959884001661,133.73156782798551,3373.0078087862994,5233755843,False
弥生の湯,岩手県,北上市,和賀町岩沢,39.307097055736904,140.9486442258445,3373.163034852275,5840776544,False
感湯館,秋田県,由利本荘市,新沢字石田,39.467733094704386,140.15132192009767,3376.2261946332396,,False
小女郎川鉱泉,愛媛県,新居浜市,大永山,33.86694416697203,133.29555618717785,3381.379754138895,,False
祖母谷温泉,富山県,黒部市,宇奈月温泉,36.69674183229808,137.6646388315288,3383.3251007469403,,False
谷地,山形県,真室川町,大字大沢,38.89083597167229,140.20331380946675,3384.333738091629,5840216634,False
発電所利用泉,富山県,黒部市,宇奈月温泉,36.69697803486413,137.65747180535234,3384.4696147185077,5537053241,False
猿飛温泉,富山県,黒部市,宇奈月温泉,36.69730803487501,137.65786114346977,3384.4696147185077,5537053241,False
笹平温泉,富山県,黒部市,宇奈月温泉,36.78591314797631,137.62895296765723,3388.7621418393874,,False
黒薙温泉,富山県,黒部市,宇奈月温泉,36.785965004343645,137.62886607215555,3389.129432061246,,False
仙人の湯,富山県,黒部市,宇奈月温泉,36.78593023162741,137.62879206882224,3389.414614096879,,False
観照園泉源,北海道,伊達市,有珠町,42.52524410701393,140.78210004700964,3391.056447536584,6340663221,False
笹倉温泉,新潟県,糸魚川市,大字越,36.98545700531449,138.01899378418332,3394.4451318733973,,False
笹倉新湯,新潟県,糸魚川市,大字越,36.98547513273608,138.0190357906552,3394.6498785895237,,False
最上2号泉,山形県,最上町,大字大堀大堀,38.754332791974385,140.4674077518604,3395.6895361319243,,False
(雲南市),島根県,雲南市,三刀屋町根波別所,35.26194379279205,132.79722189805236,3398.022831933895,,False
昭和,福島県,昭和村,大字野尻,37.35578904197979,139.5909248259219,3399.5506439210426,,False
湯倉,福島県,金山町,大字水沼,37.42950801970871,139.48151412233034,3402.3090794466416,5639131841,False
深耶馬,大分県,中津市,耶馬渓町深耶馬,33.37122827176776,131.16476381186524,3406.552672122941,5031014331,False
湯瀬,秋田県,鹿角市,花輪字下中島,40.123435993908856,140.83707499744776,3408.145707422272,6040164644,False
青井岳,宮崎県,宮崎市,乙唐仁田（西分団）,31.82997198651233,131.22486879609934,3417.0776857034366,,False
焼走,岩手県,八幡平市,平笠,39.882938805651904,141.07371392984032,3419.6630844389174,,False
(宇奈月町),富山県,黒部市,宇奈月温泉,36.66861103227481,137.68388845619288,3421.100880919266,,False
餓鬼谷温泉,富山県,黒部市,宇奈月温泉,36.66870287069852,137.68928117840218,3424.1860722753804,,False
蒜山八束温泉,岡山県,真庭市,蒜山上長田花園下,35.2980560442335,133.72527792023945,3426.6005789600404,,False
日中温泉,福島県,喜多方市,大字熱塩,37.75169682049102,139.90566427096996,3429.687733850948,,False
善の湯,宮城県,栗原市,栗駒文字二本木,38.87408616256522,140.90141686746463,3430.730627488389,5840274233,False
塩,山形県,大蔵村,大字赤松升玉,38.66756694381099,140.20687197679834,3430.857118328197,5840010621,False
阿曽原温泉,富山県,黒部市,宇奈月温泉,36.65761883706258,137.6777338112095,3435.1736228732875,,False
新高湯,山形県,米沢市,大字関,37.77110837089652,140.13278597575732,3437.7864461545237,,False
猿ケ城温泉,鹿児島県,垂水市,高城,31.48107801467929,130.75954697090222,3442.849269729209,4730167042,False
内大臣,熊本県,山都町,大字津留,32.64066116800844,130.98839410099404,3443.2587955134054,4830776933,False
温井温泉,広島県,安芸太田町,大字加計字温井,34.63756698844807,132.29338321003843,3447.4893444716063,5132726332,False
仙人湯,富山県,立山町,芦峅寺,36.64538618999812,137.6599637873371,3448.0877059627705,,False
壮瞥,北海道,壮瞥町,字洞爺湖温泉,42.558667014772034,140.84153127167033,3450.8989103303816,,False
仙人ダム源泉,富山県,黒部市,宇奈月温泉,36.649171906752514,137.68227182791998,3451.228176541747,,False
福館,青森県,平内町,大字福館字福館,40.9417000669581,140.95984190024592,3456.188544793779,6140373622,False
市江崎温泉,和歌山県,白浜町,大字日置,33.585511900471744,135.40098488014868,3457.675845037916,,False
相川平根崎,新潟県,佐渡市,戸地,38.121216761637434,138.2734190233141,3461.3318820566874,5738124142,True
高千穂,宮崎県,高千穂町,大字岩戸,32.74800021994398,131.35770024101132,3461.4847625102784,,False
長崎,青森県,東北町,大字上野,40.780069011793884,141.25057190481948,3473.6991572745383,,False
湯川内,鹿児島県,出水市,武本,32.03663612981034,130.35497190273566,3489.8744192387917,4830024814,False
ホテル雷屋1号,山形県,鶴岡市,堅苔沢字深浦,38.68612522160288,139.62870800995913,3492.422280158409,5839052014,False
大平,山形県,米沢市,大字大平,37.778574993288096,140.15061870347554,3492.7294411008643,,False
尾之間温泉,鹿児島県,屋久島町,尾之間,30.24065321332206,130.54868304856987,3500.5818751400357,4530248344,True
湯ノ口温泉,和歌山県,新宮市,熊野川町嶋津,33.86463297461002,135.8891437028827,3501.876008567415,5035673131,False
足ボーリング泉,岡山県,真庭市,仲間真賀,35.142851970548115,133.71812793102632,3502.6608253309714,5233557712,False
柵口温泉,新潟県,糸魚川市,大字柵口,37.03910024621779,138.05326398755795,3526.050679139338,,False
玉松,青森県,蓬田村,大字郷沢,40.99469674839521,140.64749690600195,3542.2374910217677,,False
湯ノ谷温泉,和歌山県,串本町,田原,33.546501988815166,135.85529303000396,3542.9070419765144,5035265832,False
グリーンランド,青森県,十和田市,大字米田,40.547486150009256,141.24003303273244,3546.7125668847457,6041615931,False
東山温泉,香川県,高松市,塩江町上西,34.13492181209881,134.07781695945715,3551.7385318823867,5134106611,False
大釣荘温泉,岡山県,鏡野町,奥津川西,35.213506210445274,133.91533903684712,3564.7934907308836,,False
立山温泉,富山県,立山町,芦峅寺,36.5552167361231,137.57588622260505,3565.9442345316415,,False
黄金の湯,岩手県,花巻市,鉛字中野,39.46980618531698,140.9883058967356,3571.724683723652,5940176913,False
西鉛,岩手県,花巻市,鉛字中野,39.4693431897522,140.98854223174513,3571.724683723652,5940176913,False
室光泉源,北海道,伊達市,南稀府町,42.41270029109933,140.9192998267199,3572.9032347262737,6340479341,False
高城,宮崎県,都城市,高城町有水田辺,31.88133886259526,131.14396399642396,3574.1945327844746,4731615143,False
寿の湯,岩手県,金ケ崎町,西根,39.1880967606096,141.00391396954922,3575.1336301628694,5841602032,False
小松川,秋田県,横手市,山内小松川字李原,39.289700084538474,140.65641403832117,3575.4374861783676,5840754243,False
旭の湯,岩手県,金ケ崎町,永栄,39.13155812550799,141.00573298904044,3577.554117899947,5841505034,False
塩江奥の湯温泉,香川県,高松市,塩江町上西,34.13054475883509,134.07487892168268,3578.741683525151,5134105542,False
木の沢,山形県,庄内町,肝煎木ノ沢,38.713014046315685,140.0119716285082,3583.665835222727,5840005042,False
高天原温泉,富山県,富山市,有峰,36.44538605431902,137.584893920622,3584.355607648145,,False
能登町野温泉,石川県,輪島市,町野町東,37.40111122046585,137.09305616305846,3591.7266412046256,5637008712,False
ユースランド・小先達,秋田県,仙北市,田沢湖生保内,39.7423136758938,140.71974674892616,3593.196598879558,5940459721,False
間々下温泉,東京都,新島村,本村６丁目,34.36110008410612,139.24496393114913,3594.759791708827,,True
島田,青森県,大鰐町,大字島田,40.470961076342654,140.58066382740546,3609.200199737958,6040546632,False
能登青島温泉,石川県,七尾市,中島町深浦,37.13805575755836,136.88833290578518,3610.7756925905446,,False
小谷温泉,長野県,小谷村,大字中土,36.82123318641069,137.97584964970218,3611.8148949438023,,False
水分,大分県,由布市,大字川西,33.25239401021984,131.28612796015946,3612.1229571728695,4931720224,False
窓明荘,福島県,南会津町,大桃字平沢山,37.07935282175849,139.42008893147897,3612.466037206604,,False
金峰,秋田県,横手市,雄物川町大沢,39.28686368188673,140.38335314224923,3615.1548465765677,5840734023,False
湯之谷,鹿児島県,霧島市,牧園町高千穂,31.88781125808297,130.8376922099703,3624.187791200012,,False
切込,宮城県,加美町,宮崎字西原３番,38.63606914428071,140.7088612073425,3625.3885606141,,False
(古座川町),和歌山県,古座川町,月野瀬,33.53583313411057,135.79027819498145,3631.015686750901,,False
(周参見町),和歌山県,すさみ町,周参見平松,33.546110996741405,135.48111115085348,3632.1103985982563,5035235832,False
親谷温泉,石川県,白山市,中宮,36.25483901532109,136.79986704235318,3636.07213752331,,False
烏川温泉,石川県,珠洲市,長橋町,37.50000009763716,137.17277834831876,3638.9476969699795,5637210322,False
河辺・雄和深層熱水井,秋田県,秋田市,河辺戸島字井戸尻台,39.61729977083303,140.22150002085047,3639.6571857358704,,False
羽山の湯,岩手県,北上市,和賀町岩沢,39.29741701020079,140.92658623465516,3642.649979122046,,False
真賀温泉,岡山県,真庭市,仲間真賀,35.13748695297263,133.71584154373505,3644.558431117042,5233556732,False
大川原,青森県,黒石市,大字南中野,40.63332483136854,140.7133860591851,3647.221656611579,6040755733,False
岳の湯,大分県,九重町,大字菅原,33.1553419683208,131.13669398676996,3648.1576709637416,4931518042,False
(真庭市),岡山県,真庭市,蒜山吉田吉田,35.27749985810772,133.78805633563778,3650.3508599638685,5233763313,False
関平湯,鹿児島県,霧島市,牧園町高千穂,31.902946959252066,130.81208621398133,3652.211406778372,,False
姫川温泉,長野県,小谷村,大字北小谷,36.88980329526243,137.86349626448796,3653.3344147755806,5537266933,False
安座温泉,福島県,西会津町,野沢,37.574447029324055,139.60083294539066,3656.781891680034,5639248833,False
大田三瓶川ラジウム温泉,島根県,大田市,大田町野城,35.17027811405438,132.54380822098108,3666.6970657510265,,False
駒の湯,新潟県,魚沼市,湯之谷芋川,37.1616419549777,139.08900800325972,3669.4343913840185,5539509713,False
金剛生神温泉,石川県,志賀町,富来生神,37.11832782665215,136.72829676294813,3669.6159056714255,,False
般若寺温泉,岡山県,鏡野町,奥津川西,35.21365190503917,133.91387997836,3672.159423200255,,False
姥湯,山形県,米沢市,大字大沢,37.76025014256431,140.2225777389039,3673.604544076785,,False
大岩屋,大分県,豊後高田市,城前,33.58941408804687,131.52321697895627,3675.5498870401198,5031340142,False
長崎鼻,鹿児島県,指宿市,山川岡児ヶ水,31.169833028557818,130.57504702033154,3677.263888386418,4630640613,False
十角温泉,大分県,竹田市,大字入田,32.93549715234458,131.40249991840653,3681.521603352245,4931332213,False
岩倉温泉,島根県,安来市,広瀬町上山佐,35.32166681925427,133.0861107477043,3681.7111172682635,5233708642,False
清水川原田源泉,愛媛県,鬼北町,大字清水,33.30373296328579,132.69158601721765,3682.3512846289937,4932756514,False
真玉温泉,大分県,豊後高田市,城前,33.59326130263475,131.5094919909748,3696.248682741525,5031341022,False
駒里,北海道,千歳市,駒里,42.792886020878534,141.73243323451837,3697.190719919098,6441155821,False
中之郷尾越温泉,東京都,八丈町,中之郷,33.0637537209683,139.8171671783981,3700.271682793984,,True
島温泉,長野県,小谷村,大字北小谷,36.850628238066776,137.89609167660407,3701.359513401199,5537272121,False
耶馬溪観光ホテル,大分県,中津市,耶馬渓町深耶馬,33.38466893068341,131.1672469658992,3712.732735088255,5031016312,False
山川荘,熊本県,小国町,大字北里,33.14421137807526,131.1168688017281,3712.907711102378,4931507914,False
上の湯,山形県,米沢市,大字大沢,37.78190601408748,140.22719997627894,3716.030867029089,,False
湯沢,秋田県,由利本荘市,湯沢,39.341188811854,140.13478291225397,3717.412697446083,5940010044,False
貝の沢,秋田県,秋田市,太平山谷字中山谷,39.72091682026831,140.26022206662202,3718.7112853316576,5940426042,False
(立山町),富山県,立山町,芦峅寺,36.58511399032827,137.58349675393944,3723.9248149766727,,False
内野々,鹿児島県,霧島市,牧園町三体堂,31.9004749454731,130.79260303282513,3726.818611451695,4730668312,False
女米木,秋田県,秋田市,雄和左手子,39.55244203561872,140.20766719990212,3743.2747851879617,5940216623,False
柿木温泉木部谷温泉,島根県,吉賀町,柿木村大野原,34.429159964326054,131.89577715314354,3743.8758525104518,5131571123,False
十和田湖,青森県,十和田市,大字法量,40.57971699928374,140.99473882891323,3757.434270072747,,False
清水川,岩手県,八幡平市,柏台２丁目,39.91974392836431,141.02768928874065,3760.0585227524803,5941700213,False
六川目,青森県,三沢市,六川目６丁目,40.77348117944535,141.39885296503542,3771.083134664471,6141132144,False
鹿部,北海道,鹿部町,字大岩,42.022699989791164,140.83499974684517,3773.593819379939,6340062642,False
木綿麻川温泉,徳島県,つるぎ町,貞光字宮平,34.00120628100257,134.08412818929278,3773.8097689101805,5134000621,False
湯川・中の湯,岩手県,西和賀町,湯川,39.2781827998934,140.771713506703,3779.9348808250215,,False
舟形若あゆ,山形県,舟形町,舟形,38.711311189518035,140.33970002336042,3780.636645767597,,False
柵口鉱泉,新潟県,糸魚川市,大字田麦平,37.03523879877513,138.06805022501817,3791.8178857359026,5538404512,False
中宮温泉,石川県,白山市,中宮,36.25832119830318,136.76394707150843,3792.437416646662,,False
土湯沢,福島県,北塩原村,大字檜原,37.63005020849613,140.09791385698028,3793.717306378517,,False
水沢,秋田県,大仙市,協和稲沢字水沢,39.61501693512082,140.43774176954145,3802.7783443497156,,False
(益田市),島根県,益田市,匹見町落合,34.566660134042465,132.02225156569847,3805.2428933129468,5132607144,False
西谷,大分県,中津市,本耶馬渓町西谷,33.40800005182823,131.19816381014698,3817.637933378228,5031018544,False
笠松鉱泉,山形県,米沢市,大字大沢,37.827141789833824,140.21472819678146,3819.568829737155,,False
一勝地,熊本県,球磨村,大字一勝地,32.241781127402426,130.64640806159272,3820.546749092419,4830259121,False
角神温泉2号,新潟県,阿賀町,鹿瀬,37.71114388208296,139.47129382011005,3822.018224062544,,False
梅内,秋田県,能代市,梅内字前田,40.23850578737757,140.21074398769483,3828.5306500470742,6040218642,False
虎杖浜,北海道,登別市,登別東町１丁目,42.45930009846665,141.20030020452876,3832.2788647008474,,False
胎内,新潟県,胎内市,宮久,38.0228969573865,139.4987308903832,3837.213329038598,,False
有福温泉,島根県,江津市,有福温泉町,34.9405559317883,132.20027843571546,3845.1877720539724,5232312633,False
桜湯,山形県,酒田市,中野俣字家ノ前，字笹下,38.897943597506355,140.00723310322024,3850.3792889974898,5840207041,False
旧温泉研究所,北海道,鹿部町,字大岩,42.02878318360334,140.83071925120737,3850.6811478247687,6340063614,False
亀の湯(1),北海道,鹿部町,字大岩,42.02876113986694,140.8306282303267,3850.6811478247687,6340063614,False
高迫源泉,大分県,日田市,中津江村合瀬,33.15148310616013,130.89966381419868,3851.9898872786325,4930578122,False
石之谷鉱泉,新潟県,上越市,吉川区石谷,37.19665845548616,138.50426359498812,3853.584439160925,5538643032,False
中の湯,福島県,磐梯町,大字磐梯,37.613294068669184,140.05988337366477,3854.3624497314363,,False
川代,山形県,鶴岡市,羽黒町川代字中川代,38.67307503475972,139.9552610892515,3854.492993193217,5839070634,False
白布源泉,山形県,米沢市,大字関,37.77967190312355,140.11963271797927,3854.63753216196,,False
笹ヶ峰,新潟県,妙高市,大字杉野沢,36.85969999664291,138.08919985538554,3858.733323428389,,False
会津田島鉱泉,福島県,南会津町,静川,37.18729979140774,139.67510036352746,3860.911576977267,,False
華蔵温泉,島根県,出雲市,多伎町久村,35.28504100524622,132.65260163169395,3861.7206704591317,5232754211,False
滝の沢,秋田県,大仙市,協和中淀川字下タ村,39.58747803478884,140.27848609437325,3869.110658549798,5940320214,False
美馬温泉,徳島県,美馬市,美馬町,34.09721113836461,134.06807829549422,3870.589569988791,5134101532,False
渋沢,新潟県,魚沼市,下折立,36.982688735452484,139.25618898909116,3876.450476698882,5539327034,False
新五色源泉,福島県,福島市,李平,37.796168914740754,140.25315323368255,3885.206766717771,,False
県民の浜温泉,広島県,呉市,蒲刈町大浦,34.164878057944,132.74719906575592,3886.009028837958,,False
小富士荘,福島県,福島市,土湯温泉町,37.7160859636714,140.25255031030812,3888.413560459837,,False
三段峡温泉,広島県,安芸太田町,大字川手,34.59972221531918,132.20861114441175,3888.814779815093,5132711643,False
幕川,福島県,福島市,土湯温泉町,37.68578299201358,140.24297801550912,3891.5047669498017,,False
大山鉱泉,新潟県,上越市,大島区田麦,37.15770795302607,138.54023618646607,3892.9508418947426,,False
湯迫温泉,島根県,大田市,仁摩町天河内,35.14118719368969,132.40952714892845,3894.2451222505733,5232536244,False
塩沢温泉,岐阜県,高山市,高根町上ケ洞,36.049140774481884,137.48387104226038,3898.363254485232,,False
五色,福島県,福島市,李平,37.79541371459553,140.25625619209097,3909.1850426948067,,False
鳩ケ湯,福井県,大野市,上打波,36.03222179150375,136.68027798408295,3910.436890108042,5436053434,False
(海士町),島根県,海士町,大字海士,36.101389001841945,133.10666692569072,3911.7967026642386,5433102821,True
弁天の湯,岩手県,一戸町,楢山字来田,40.21756091859628,141.35219984030144,3912.147055717859,6041226811,False
妙高・池ノ平,新潟県,妙高市,大字関山,36.88567492866175,138.12091881562756,3912.4667267139826,,False
泉ヶ平鉱泉,岐阜県,高山市,丹生川町駄吉,36.14266368542547,137.42260380997698,3916.1077344054524,,False
佳留萱温泉,岐阜県,高山市,奥飛騨温泉郷栃尾,36.25999989197181,137.55722208413493,3917.315275832183,,False
実栗屋油田,山形県,舟形町,富田,38.6599389708536,140.29655795924114,3921.504777286578,5740729321,False
杉倉温泉,宮崎県,都城市,高崎町前田杉倉,31.90678857972233,131.06376685465813,3921.7395389150224,4731608533,False
湯俣温泉,長野県,安曇野市,穂高有明,36.396213771341294,137.67591686031216,3926.5662092574976,,False
来馬温泉,長野県,小谷村,大字北小谷,36.84091803276637,137.9007232154222,3930.260365927683,5537270233,False
ホテルマウント磐梯,福島県,福島市,土湯温泉町,37.65586125341408,140.25407490973407,3934.245240210237,,False
湯浜,東京都,八丈町,樫立,33.064444006108126,139.79972192925706,3938.713026262558,,True
中沢,山形県,尾花沢市,大字高橋高橋,38.635616914887244,140.48836397801324,3943.3963116612103,5740736913,False
きのえ温泉,広島県,大崎上島町,沖浦,34.215743269867,132.91659120613994,3944.391227743682,,True
(周防大島町),山口県,周防大島町,大字久賀,33.95337708030557,132.279263800965,3945.8956562884046,,False
七倉温泉,長野県,大町市,平,36.49386181624371,137.72420872132352,3952.9716011058713,5437559724,False
塩水,宮崎県,宮崎市,乙塩水（西分団）,31.830852979386126,131.25553624285948,3955.3626731243726,4731529032,False
足付温泉,東京都,新島村,式根島,34.31994026599693,139.21731007440337,3957.1393382642564,,True
鷲倉,福島県,福島市,土湯温泉町,37.6684469332496,140.26057185398156,3965.0520938305867,,False
坂巻温泉,長野県,松本市,安曇沢渡,36.197682993982106,137.6139732144126,3971.215984665796,5437243931,False
秋神鉱泉,岐阜県,高山市,朝日町桑之島,35.98601101428324,137.40154669126704,3972.013580166906,5337738213,False
頭王温泉,愛媛県,西予市,野村町高瀬,33.41264672644041,132.6376968860669,3973.7312404390996,5032059131,False
美土里温泉,広島県,安芸高田市,美土里町本郷,34.722339054668545,132.62853328799432,3974.8540960310866,,False
月野瀬の湯,和歌山県,古座川町,月野瀬,33.536300838553494,135.79673847617735,3980.6432859644788,5035264323,False
焼山温泉,新潟県,糸魚川市,大字越,36.993739090262196,138.0107998534903,3985.8215186218804,,False
柳田温泉,石川県,能登町,字笹川,37.365206299955204,137.09055608709477,3986.0453070678846,,False
熊の子沢温泉,秋田県,由利本荘市,矢島町川辺字田中,39.24685178790145,140.12151405746243,3986.092065015614,5840609941,False
栃尾又,新潟県,魚沼市,大湯温泉,37.185732847397134,139.08537800355512,3986.209098653387,,False
村松鉱泉,新潟県,五泉市,笹目,37.655826758409546,139.29141399068897,3986.4696447560927,,False
第4源泉,福島県,金山町,大字横田字山根,37.39229992882623,139.42791386519127,3987.051695821124,5639037411,False
元湯甲子温泉,福島県,西郷村,大字真船,37.18129182563081,139.99136685540876,3987.931175966759,,False
泉の里,熊本県,南小国町,大字満願寺,33.07282188051258,131.12804392940436,3996.712472458615,4931418031,False
燕,新潟県,妙高市,大字関山,36.90079703475289,138.1374188113869,3998.6425394502958,,False
櫛来温泉,大分県,国東市,伊美,33.680000013334386,131.6053497550628,4003.1246812337276,,False
鷹羽鉱泉,新潟県,上越市,牧区宇津俣,37.028558098893235,138.42989379362183,4006.223049062481,,False
山都町一ノ木,福島県,喜多方市,大字一ノ木字高野原乙,37.722214021936594,139.7832997760877,4009.48272827763,,False
向野,大分県,杵築市,大字向野字八丸,33.50142721705295,131.44555189269582,4011.229535599013,,False
中山平,宮城県,大崎市,鳴子温泉字星沼,38.72689670625881,140.6776890316459,4018.2583086307504,5840057411,False
石山,北海道,白老町,本町３丁目,42.539500098685465,141.3285002425685,4020.3207277496713,,False
薄別,北海道,南区,定山渓,42.94109402522915,141.12763630284718,4022.312663744368,,False
栃窪鉱泉,新潟県,上越市,柿崎区栃窪,37.28041718970034,138.4367277575534,4023.3079007579713,,False
野矢,大分県,九重町,大字野上,33.23841888427077,131.26188302513964,4025.4426352358055,4931628042,False
中ノ湯温泉,岐阜県,高山市,奥飛騨温泉郷中尾,36.21008091125268,137.60629126464653,4026.757773651666,,False
野地温泉ホテル,福島県,福島市,土湯温泉町,37.668900205336996,140.26895301992676,4035.2361262733343,,False
亀の湯,福島県,金山町,大字八町,37.42216878580626,139.54380289421877,4040.126725602362,5639140341,False
大黒湯(共同浴場),福島県,金山町,大字八町,37.42146386467771,139.5442531156901,4040.126725602362,5639140341,False
蛇の湯,新潟県,津南町,結東丑,36.933708080214565,138.65282174370532,4045.27866578355,5538352211,False
小出鉱泉,新潟県,阿賀町,両郷,37.6289334259797,139.48947797565654,4045.98076948254,5639335913,False
金吉,大分県,玖珠町,大字古後,33.37454992686608,131.12228307489923,4049.226587166333,5031004944,False
寂地温泉,山口県,岩国市,錦町宇佐郷字宇佐郷中,34.3772217994257,132.02166683579978,4049.6457962693908,,False
朱鷺の湯,石川県,穴水町,字志ケ浦,37.202061184653616,136.89903614623984,4051.7784983858005,5536674124,False
(西予市),愛媛県,西予市,野村町大西,33.396667053073955,132.66611147507942,4055.604522537665,5032057332,False
赤城・本郷,山形県,戸沢村,大字角川下本郷,38.69394996233011,140.15279693506926,4061.355407542405,5840013213,False
須木,宮崎県,小林市,中原中河間,32.081716859052044,131.06780597566527,4062.445073145236,4831009534,False
大宝温泉,石川県,珠洲市,飯田町,37.45222188877272,137.23862826358356,4062.614357423991,5637114913,False
指宿/池底,鹿児島県,指宿市,尾下,31.234808151778275,130.59873903185965,4064.5814212790115,,False
奉納温泉,長野県,小谷村,大字中土,36.81030607227959,137.9512417036483,4066.9657713994743,,False
中の宿鉱泉,岐阜県,高山市,高根町中之宿,36.03579193036308,137.44282803069902,4074.3578375664706,5437034514,False
薄別温泉,北海道,南区,定山渓,42.94174680959652,141.12834362899338,4076.197433563717,6441313012,False
華山温泉,山口県,下関市,豊田町大字手洗,34.17561629152122,131.07130972728538,4076.5239032556456,5131201521,False
神山塩水温泉,徳島県,神山町,神領,33.96938313462127,134.37197620116672,4080.651979235105,5034726924,False
三斗小屋,栃木県,那須塩原市,板室,37.138286006909006,139.94660288121372,4083.0550054331384,,False
境鉄鉱泉,富山県,朝日町,宮崎,36.97415308350954,137.60895026073823,4083.614922694615,5537346843,False
乗鞍温泉,岐阜県,高山市,丹生川町旗鉾,36.181388793886754,137.48166692106432,4091.751536712873,,False
アストリアホテル,福島県,南会津町,高杖原,37.11025788409347,139.61651684381104,4092.76754710527,,False
楯山,山形県,酒田市,楯山,38.873207871631166,140.0093579956002,4094.8573707846617,5840204043,False
共同組合3号泉,山形県,尾花沢市,大字銀山新畑,38.569010972012165,140.5315861425468,4097.716776190202,5740648223,False
長者原,大分県,九重町,大字湯坪,33.119086030832115,131.23008884103754,4100.472856388437,,False
蛯沢,青森県,東北町,大字上野,40.77631692755184,141.24139395435543,4100.581120706456,,False
折立又新田,新潟県,魚沼市,折立又新田,37.19192796253206,139.06530311674763,4101.67643731834,,False
ばんだい上尾荘,福島県,北塩原村,大字檜原字蛇平原山,37.65091704707937,140.09788607224812,4102.556768475341,5640308722,False
鈍川鉱泉,愛媛県,今治市,玉川町鬼原,33.981341964637686,132.93526392946222,4115.9561292226035,,False
セセラギ,秋田県,北秋田市,阿仁比立内字堂ノ向,39.90724219559925,140.45580812114113,4129.101989950056,5940638634,False
林田温泉10号井,鹿児島県,霧島市,牧園町高千穂,31.903278006195396,130.83876699977623,4129.1205724897545,,False
黒川温泉,香川県,東かがわ市,入野山,34.19217787620017,134.2834281536691,4129.904400078758,5134223221,False
白鳥温泉,香川県,東かがわ市,入野山,34.19179404945146,134.28393825915626,4129.904400078758,5134223221,False
鹿の沢鉱泉,山形県,戸沢村,大字角川滝ノ下,38.70282483277806,140.13856891218214,4131.056043428117,5840014113,False
羽鳥湖温泉,福島県,天栄村,大字田良尾字芝草,37.23223905587226,140.0568638235353,4131.524850213009,5540607443,False
椎内温泉,北海道,稚内市,富士見４丁目,45.420386249914124,141.64085627515405,4132.025267755732,,False
(高根村),岐阜県,高山市,高根町上ケ洞,36.0381997608185,137.4888189760915,4136.629933065366,5437034931,False
湯沼第1,福島県,北塩原村,大字檜原,37.63936906198829,140.1009387823595,4139.215978796808,5640306831,False
松山新湯,山形県,酒田市,山寺字上野原,38.84292811547301,139.97298899012625,4139.896416695335,,False
市営源泉,山形県,鶴岡市,由良字楮,38.725230992434255,139.6941387156645,4140.187056090479,5839057521,False
福山,鹿児島県,霧島市,福山町福山,31.64678287957963,130.83638101734977,4141.433303764489,4730367642,False
濁河温泉,岐阜県,高山市,朝日町胡桃島,35.925000042753645,137.44555623155347,4141.828701080678,5337731521,False
御宝前,栃木県,那須塩原市,板室,37.128561038593006,139.94592510112466,4142.758124168769,,False
轟温泉,鹿児島県,霧島市,牧園町上中津川,31.867086001417707,130.7891890220667,4143.049737238906,4730664311,False
大和館1,福島県,天栄村,大字湯本字鍋山,37.241413837278294,139.98863896520507,4143.37637742012,5539678933,False
穂高温泉,岐阜県,高山市,奥飛騨温泉郷神坂,36.28000003158856,137.5719437770442,4144.36892381351,,False
関沢荘,山形県,真室川町,大字川ノ内,38.89571356123897,140.2587720535397,4146.107711202741,,False
木田温泉,島根県,浜田市,旭町木田木田６,34.88614499573656,132.26433006394296,4153.17699325277,5232226113,False
あさひ温泉,島根県,浜田市,旭町木田木田６,34.88563023970222,132.26442710724885,4153.17699325277,5232226113,False
根木共同引湯,秋田県,湯沢市,秋ノ宮,38.96565328336061,140.5265860645041,4157.680811812062,5840345233,False
熱田温泉,愛媛県,宇和島市,津島町高田,33.139674867953474,132.52083614968393,4158.346986989525,,False
(雄物川町二井山),秋田県,横手市,雄物川町二井山字二井山,39.31388296338355,140.38293907092623,4158.705872429534,5840737041,False
早稲沢温泉開発,福島県,北塩原村,大字檜原字早稲沢,37.729272215332074,140.07056895975535,4159.41864520993,,False
湯本東館,岩手県,金ケ崎町,西根,39.22721118685123,141.0121079446906,4159.744588195139,,False
湯の越,秋田県,五城目町,内川浅見内,39.974014100531434,140.16893603509837,4160.115633975527,,False
御神楽温泉,新潟県,阿賀町,日野川,37.60086106414956,139.42630793345964,4161.644974339735,,False
小川原湖,青森県,三沢市,大字三沢,40.69820788856158,141.32435301389077,4162.747418061171,,False
吉岡,北海道,福島町,字館崎,41.44391093598947,140.22731697890754,4163.7440472106355,,False
千屋温泉,岡山県,新見市,千屋井原,35.147681948838425,133.43905304388335,4166.001704845523,,False
蒲庭鉱泉,福島県,相馬市,蒲庭字前迫,37.74314379258681,141.0029612903596,4168.6947511779545,5641409011,False
白骨温泉,長野県,松本市,安曇白骨,36.14568389275445,137.62364306505265,4169.783271321856,5437147924,False
新甲子温泉開発(株),福島県,西郷村,大字真船,37.17559178111093,140.0297280520994,4170.886909024986,,False
小本,岩手県,岩泉町,小本,39.846538988657876,141.96536874583714,4173.241322957258,5941671731,False
剱地温泉,石川県,輪島市,門前町剱地,37.230800128709795,136.7075499850377,4174.318707219595,5536657641,False
湯村温泉,島根県,雲南市,吉田町川手,35.217499796171,132.90805611267888,4174.580675525403,5232676221,False
出雲湯村温泉,島根県,雲南市,吉田町川手,35.21745780130312,132.90802096725568,4174.580675525403,5232676221,False
槍見温泉,岐阜県,高山市,奥飛騨温泉郷中尾,36.267221972478175,137.56472186097145,4175.214656111511,,False
湯の沢,秋田県,能代市,小繋字神明社下,40.21775807109916,140.260217151438,4176.380384048243,,False
層雲峡温泉,北海道,上川町,字清川,43.72766398774646,142.94723599699398,4182.198606061031,,False
石黒鉱泉,新潟県,柏崎市,高柳町石黒,37.1884140309568,138.57105305653448,4186.320072174201,,False
小倉,秋田県,五城目町,内川黒土,39.95008914190156,140.15408901840695,4191.42120660372,5940714212,False
(下呂市),岐阜県,下呂市,湯屋,35.94166673088499,137.3283329598817,4196.705048173225,5337722634,False
大船荘,大分県,竹田市,久住町大字仏原,33.07006702198548,131.3299937737484,4197.897565252217,4931428614,False
寺尾野,熊本県,小国町,大字上田,33.122536166614275,131.12058080979276,4199.616832681285,,False
貝掛,新潟県,湯沢町,大字三俣,36.87253907447322,138.76946684067025,4200.59571439142,5538264141,False
湯穴,宮崎県,都城市,吉之元町,31.829096955003553,130.9153638335037,4201.941890008399,4730579313,False
新穂高温泉,岐阜県,高山市,奥飛騨温泉郷中尾,36.26694402987153,137.56472200207864,4209.145956754616,,False
幽泉閣3号井,北海道,蘭越町,字黄金,42.79799376161464,140.59809692060364,4215.8924007611295,6440145744,False
鹿ノ瀬温泉,長野県,木曽町,開田高原西野,35.90805611583972,137.56583292652962,4216.466065708867,,False
河原湯,新潟県,妙高市,大字赤倉,36.905782996075224,138.16154995780465,4221.529686411909,5538218242,False
葛温泉,長野県,大町市,平,36.492709726503584,137.74954183509223,4222.581360837412,5437559922,False
(日置川町),和歌山県,白浜町,大字日置,33.586718569276755,135.40437174702964,4223.011543500701,5035330214,False
永池鉱泉,鹿児島県,湧水町,幸田,31.95067520237451,130.65768313008851,4224.002993498123,4730754221,False
久木野尾,大分県,杵築市,大字久木野尾字西畑部,33.42628876342391,131.4340188280462,4224.087159606275,5031131421,False
羊見の湯,岩手県,二戸市,似鳥字浅石,40.23789993642732,141.23352507470537,4226.1062878924895,6041218841,False
湯の釣,大分県,日田市,天瀬町赤岩,33.26118882322168,131.05390826283465,4226.510835739794,4931701414,False
入道鉱泉,福島県,古殿町,大字松川字滝ノ平,37.02632801422888,140.56490638018147,4227.036632541936,,False
立久恵温泉,島根県,出雲市,乙立町,35.29402289886088,132.73845609700874,4227.73657655527,,False
わたらせ温泉,和歌山県,田辺市,本宮町渡瀬,33.81805616380368,135.76583310433483,4229.8617495266735,,False
R1号泉,山形県,戸沢村,大字松坂野口,38.78265323000534,140.1840999702897,4235.283581133676,5840113443,False
生保内,秋田県,仙北市,田沢湖生保内,39.72788590166548,140.72029990366795,4239.426644799127,5940457723,False
峩々,宮城県,蔵王町,遠刈田温泉字上ノ原,38.14396398424811,140.49974192935966,4241.691182113724,,False
切明,長野県,栄村,大字堺秋山,36.809256409180556,138.62039999951514,4256.161420320914,5538147921,False
猿倉の湯,新潟県,湯沢町,大字三俣,36.848699999316885,138.7674999432173,4257.2976371694285,,False
中野,秋田県,大館市,中野,40.17579204402745,140.60539709072728,4261.897411832623,6040241812,False
由仁町泉源,北海道,由仁町,東光,42.9981217791025,141.77651107321523,4265.790195828006,,False
館,秋田県,由利本荘市,湯沢,39.33986671311514,140.13182221677602,4269.56620732553,5940010043,False
篠崎,岩手県,雫石町,長山篠ケ森,39.7702000074661,140.94654715019556,4272.514576003724,,False
ラムネ,鹿児島県,霧島市,隼人町嘉例川,31.831902945658562,130.73758902649573,4273.995296489991,,False
(白馬村),長野県,白馬村,大字北城山麓,36.70313867207057,137.82063316888886,4281.120081400317,,False
和山,長野県,栄村,大字堺秋山,36.82843120404286,138.62063593272765,4281.7131078731345,5538149923,False
ほくぼう温泉,岡山県,真庭市,上中津井横山,34.90777818141951,133.62833325659432,4284.094882418021,,False
松原(泉郷),北海道,千歳市,泉郷,42.913125035117254,141.72263275764652,4284.711291671301,,False
かもしか,宮城県,蔵王町,遠刈田温泉字上ノ原,38.14435811352422,140.463544039803,4287.109913677071,,False
濁川温泉,長野県,王滝村,滝越,35.82138906215138,137.4747218448725,4288.88665852748,,False
おんたけ温泉,長野県,王滝村,上条,35.840278146019216,137.52805591399118,4291.206863814129,,False
組合泉2号,山形県,大蔵村,大字南山金山,38.60888346355432,140.1670968671339,4294.277985679257,5740713312,False
ドリーム九重温泉,大分県,九重町,大字右田,33.22793115090301,131.22255593507313,4294.911243006896,4931617724,False
穴藤鉱泉,新潟県,津南町,穴藤,36.94848905931276,138.65867508903307,4295.715284289427,5538353243,False
稲川源泉1号,栃木県,那須町,大字湯本,37.12933304544665,139.98771367384253,4302.817504116037,,False
青海島温泉,山口県,長門市,仙崎,34.404166967164365,131.18833316251715,4313.286532870744,5131418531,False
(土佐清水市),高知県,土佐清水市,足摺岬,32.72638877454211,133.00694398543072,4320.764757723893,4933007021,False
螢川荘,大分県,九重町,大字菅原,33.1867969781708,131.146911256593,4324.111296594736,4931612124,False
羽茂,新潟県,佐渡市,羽茂飯岡,37.859656149286046,138.32951103173897,4325.571167672769,5638623612,True
玉川温泉,愛媛県,今治市,玉川町竜岡下,33.99888884973268,132.91916699167152,4327.203504962745,5032779343,False
院内,大分県,宇佐市,院内町大坪,33.37770824552218,131.30817181779457,4328.297333673046,5031025423,False
郷緑温泉,岡山県,真庭市,本庄上岸,35.17901907490565,133.7164002048658,4328.728599203799,,False
豊原,北海道,函館市,古川町,41.76980007887686,140.86650007744862,4339.966200082464,6240562914,False
余一源泉 NO.1,栃木県,那須町,大字湯本,37.11621710557886,139.96880318517242,4345.733089618205,,False
銚子温泉,岐阜県,高山市,丹生川町曽手,36.17611110811144,137.45555637598528,4348.348307226679,5437231612,False
(丹生川村),岐阜県,高山市,丹生川町曽手,36.175555973910804,137.45388898006635,4348.348307226679,5437231612,False
竜門山渓館,大分県,九重町,大字松木,33.273386017411354,131.20894707436972,4350.6862401812905,4931712643,False
不動の湯,山形県,白鷹町,大字大瀬大瀬,38.25269410842132,140.10653328512,4352.041415376278,,False
山楽源泉11号,栃木県,那須町,大字湯本,37.12316727844861,139.98493318258627,4355.523751700665,,False
鼠ケ関,山形県,鶴岡市,鼠ケ関字横路,38.567791750249306,139.55139380909918,4357.907974686721,5739648411,False
薬師の湯(小出4号),新潟県,十日町市,小出,36.97326118188852,138.74979709495685,4362.234860936243,5538356944,False
裏耶馬温泉,大分県,玖珠町,大字古後,33.35579995022826,131.09911402078436,4362.407803686486,5031002742,False
下湯,青森県,青森市,大字野沢字川部,40.72256097214234,140.7428191007296,4362.810850612904,6140056932,False
沼ノ平,福島県,会津美里町,西尾,37.40506673463252,139.79801867969655,4363.302115150065,5639068342,False
宇津俣鉱泉,新潟県,上越市,牧区棚広新田,37.04098604132007,138.42919698001165,4364.519319487086,,False
蛭ヶ野鉱泉,岐阜県,郡上市,大鷲,35.94066880695873,136.9188030584998,4366.8396184623325,,False
樽沢温泉,長野県,王滝村,東,35.84027790914791,137.56611116831044,4367.088660827283,,False
たかの湯温泉,長野県,王滝村,上条,35.83416678752449,137.54027801889262,4372.566610393842,,False
川湯温泉,北海道,弟子屈町,川湯温泉１丁目,43.63726901541297,144.43905020319886,4372.980498809932,6544336513,False
新笹ヶ峰鉱泉,長野県,信濃町,大字野尻,36.852299820931464,138.13669978634474,4374.242732885841,5538212024,False
湯川温泉,石川県,七尾市,大野木町,37.08245828386859,137.03898627360812,4374.989607955745,5537409333,False
真玉,大分県,豊後高田市,中真玉,33.6179332561369,131.47648606929693,4375.676541994386,5031334811,False
湯ノ向ボーリング泉,岡山県,真庭市,湯原温泉１区,35.2055562096382,133.7316668431301,4379.822985349235,,False
湯舟沢,山形県,村山市,大字土生田字土生田第４,38.54816682826087,140.41395610487314,4380.097982892988,,False
弥高山温泉,岡山県,井原市,芳井町東三原上市,34.734443968657814,133.39750009695183,4382.895589731575,5233038122,False
中子沢鉱泉,新潟県,魚沼市,中子沢,37.23786400514316,139.04197196157256,4384.902038035329,5539608332,False
恋路温泉,石川県,能登町,字松波枇杷坂,37.365731234248635,137.2417002462656,4384.902667315804,5637013934,False
奈川温泉,長野県,松本市,奈川,36.08310897439513,137.66207193064253,4387.001989953566,5437059244,False
椿温泉,和歌山県,白浜町,大字日置,33.59888878903828,135.39111114423793,4389.962259673472,5035331134,False
銀山,秋田県,北秋田市,阿仁銀山字下新町,39.99604701122148,140.4089389683319,4395.630188427768,5940739241,False
岸源泉,山形県,最上町,大字満沢一刎,38.71767794985143,140.51268123077784,4398.170698272337,5840046111,False
屋敷,長野県,栄村,大字堺秋山,36.85601911909351,138.62222519763458,4399.536330445517,5538242942,False
天狗の湯,栃木県,那須町,大字湯本,37.12427498009833,139.99594994242676,4399.670185545251,,False
赤谷,福島県,三島町,大字名入字高清水上居平,37.47726685498728,139.6492386050415,4401.788857735924,5639157124,False
大沢・津軽富士見荘,青森県,鶴田町,大字廻堰,40.75392494128507,140.37783620319547,4403.871431829328,,False
能登中島温泉,石川県,七尾市,中島町笠師南側,37.08750003196077,136.87083320128067,4408.899362148026,,False
