name,pref,city,district,latitude,longitude,urban_point,in_mesh_point,is_island
口永良部郵便局,鹿児島県,屋久島町,口永良部島,30.464314,130.191347,238.98857153867607,,True
西古見郵便局,鹿児島県,瀬戸内町,大字西古見,28.240114014120596,129.17335263754765,317.7303139388046,4229218344,True
実久郵便局,鹿児島県,瀬戸内町,大字実久,28.165199,129.209474,329.7366190056017,4229119644,True
小頓別郵便局,北海道,中頓別町,字小頓別,44.828199,142.309428,354.8431240105954,6742129424,False
古多糠簡易郵便局,北海道,標津町,字忠類,43.7487104711466,145.02929955150648,371.3791079292209,6545409234,False
母島郵便局,高知県,宿毛市,沖の島町母島,32.738875,132.549148,428.1456553240902,4932048342,True
宇検久志郵便局,鹿児島県,宇検村,大字久志,28.286634,129.23336,440.89305248346125,4229314823,True
弘瀬簡易郵便局,高知県,宿毛市,沖の島町弘瀬,32.713827,132.551099,463.28820464492554,4932045431,True
島歌郵便局,北海道,せたな町,瀬棚区島歌,42.554703,139.836831,477.37085006874815,6339666642,False
松江簡易郵便局,北海道,奥尻町,字富里,42.07659413423126,139.4870198971204,486.8837579149892,6339039822,True
宝島郵便局,鹿児島県,十島村,大字宝島,29.152528,129.204694,488.34815469690915,4329518614,True
島牧栄浜簡易郵便局,北海道,島牧村,字栄浜,42.6723742235124,139.8869571406371,493.86024051067943,6439070042,False
二俣簡易郵便局,北海道,釧路市,音別町尺別,42.970846,143.879598,499.6529090712182,6443376014,False
池地郵便局,鹿児島県,瀬戸内町,大字請阿室,28.030627,129.234063,508.335911387604,4229013841,True
貝取澗簡易郵便局（一時閉鎖）,北海道,せたな町,大成区貝取澗,42.18833,139.896033,518.0405277458791,6339272141,False
北進簡易郵便局,北海道,白糠町,茶路,43.160914,143.89068905801867,535.9340891693193,6443579114,False
上里簡易郵便局（一時閉鎖）,北海道,津別町,字美都,43.622752,144.110353,536.4153512144877,6544304842,False
縫別簡易郵便局,北海道,白糠町,茶路,43.076587,143.96875,547.3723635584745,6443479721,False
留真簡易郵便局,北海道,浦幌町,円山,42.917073171667234,143.6625177979214,547.4932125703809,6443350311,False
藻別簡易郵便局,北海道,紋別市,藻別,44.251801,143.36324,547.8899292258835,6643320911,False
神居滝簡易郵便局,北海道,遠軽町,下白滝,43.91536456079291,143.32933237679254,556.570291152147,,False
古志簡易郵便局,鹿児島県,瀬戸内町,大字西古見,28.234585,129.276219,559.3175836697711,4229228211,True
宮津郵便局,北海道,奥尻町,字宮津,42.211927,139.548841,577.3232764082447,6339245324,True
上足寄簡易郵便局,北海道,足寄町,上足寄本町,43.355243,143.785222,587.4398990564467,,False
鳩間簡易郵便局,沖縄県,竹富町,字鳩間,24.4685020015941,123.8221914784897,589.1917676285427,3623566522,True
中立牛簡易郵便局（一時閉鎖）,北海道,紋別市,上渚滑町中立牛,44.135164,143.200132,589.67985451541,,False
久著路郵便局,北海道,標茶町,（久著呂）,43.28152325620801,144.37292110169716,590.7843922655206,6444723944,False
風烈布簡易郵便局,北海道,枝幸町,乙忠部,44.74187457020943,142.7593900286804,603.4686991749924,6742069022,False
宇津簡易郵便局,北海道,興部町,字秋里朝日２区,44.423312,143.028253,610.6352894364753,6643500234,False
太櫓郵便局,北海道,せたな町,北檜山区太櫓,42.380115,139.818107,649.6293936899882,6339465532,False
上オソツベツ簡易郵便局,北海道,標茶町,（御卒別）,43.36670239749679,144.42069672424677,650.7164136246503,6544034321,False
阿鉄郵便局,鹿児島県,瀬戸内町,大字小名瀬,28.18992376602422,129.2910506232075,655.8148527096557,4229222334,True
茶路簡易郵便局,北海道,白糠町,和天別,43.039899,144.012414,658.743405265613,6444404044,False
仁宇布簡易郵便局,北海道,美深町,字仁宇布,44.54524,142.568426,661.6395381603995,6642645514,False
上平簡易郵便局,北海道,苫前町,字上平,44.264072,141.655469,669.8856941321732,6641351232,False
糸魚沢簡易郵便局,北海道,厚岸町,糸魚沢,43.104522,144.929667,683.843183664074,6444572432,False
根室峯浜簡易郵便局,北海道,羅臼町,幌萌町,43.87932126416003,145.09632846414948,701.1373302340062,6545605741,False
中割簡易郵便局,鹿児島県,西之表市,安城,30.608964,130.998505,704.1537257629719,4530773922,True
生花郵便局,北海道,大樹町,字生花,42.598874,143.452379,707.2246145765048,6343731633,False
西竹簡易郵便局,北海道,中標津町,字西竹,43.56513472255033,144.81360881160376,709.2611746053504,6544267533,False
太陽簡易郵便局,北海道,新冠町,字太陽,42.526169,142.412963,710.8209976687274,6342633311,False
中足寄簡易郵便局,北海道,足寄町,中足寄,43.28579797626777,143.63853539113273,714.0240275731339,6443754113,False
武佐簡易郵便局,北海道,中標津町,字武佐,43.625357,144.956386,721.2272416312666,6544375621,False
沼ノ上郵便局,北海道,紋別市,沼の上,44.238274,143.517125,729.7056121194673,6643248132,False
稚内曲渕簡易郵便局,北海道,稚内市,大字声問村字曲渕,45.26114061059352,141.9009848139063,743.2307353787095,6741771213,False
花石郵便局,北海道,今金町,字宮島,42.442812,140.166693,744.4385866906227,6340513312,False
滝西郵便局,北海道,滝上町,滝西,44.115414,143.011358,764.8518769861568,6643103044,False
標津忠類簡易郵便局,北海道,標津町,字忠類,43.723128,145.093618,770.5995938345948,6545406734,False
斗満簡易郵便局,北海道,陸別町,字上斗満２,43.479254,143.634898,774.011423690605,6543157042,False
鹿児島中央郵便局竹島分室,鹿児島県,三島村,大字竹島,30.813924,130.417908,775.9053947705199,4630137332,True
下久著路簡易郵便局,北海道,鶴居村,字下久著呂,43.219981,144.430698,777.6313623586583,6444636414,False
福江黄島簡易郵便局,長崎県,五島市,黄島町,32.569059,128.904554,790.6242614834168,4828678214,True
押角郵便局,鹿児島県,瀬戸内町,大字花富,28.112649,129.273195,792.9976740491987,4229123142,True
美里別郵便局,北海道,本別町,西美里別,43.177877,143.486274,795.0416520609679,6443631824,False
築別郵便局,北海道,羽幌町,字築別,44.411447,141.735812,800.4082288077244,6641459824,False
小石簡易郵便局,北海道,猿払村,小石,45.31155397110546,142.05349479660563,810.8467672863334,6742707414,False
中之島郵便局,鹿児島県,十島村,大字中之島,29.837115,129.853451,814.9633913235524,4429660814,True
日振島郵便局,愛媛県,宇和島市,日振島,33.172907,132.293464,815.0311255411368,4932620332,True
螺湾郵便局,北海道,足寄町,螺湾本町,43.307107,143.705483,821.1389045971956,6443756634,False
伊福貴簡易郵便局,長崎県,五島市,伊福貴町,32.753395032836586,128.97046426207092,824.4307664559215,4928170723,True
白金温泉簡易郵便局,北海道,上富良野町,清富,43.47378977144869,142.63816485528224,826.3290081113878,,False
富村牛簡易郵便局,北海道,新得町,字屈足,43.33285,142.945756,828.0130280704991,6442779543,False
萩ヶ岡簡易郵便局（一時閉鎖）,北海道,上士幌町,字上士幌東２線,43.274712,143.304277,829.0943862874517,6443722434,False
母子里簡易郵便局,北海道,幌加内町,字母子里,44.363416,142.26135,834.5205483262902,6642423042,False
勇知郵便局,北海道,稚内市,大字抜海村字上勇知,45.261233,141.686557,840.1027080617072,6741751424,False
久慈郵便局,鹿児島県,瀬戸内町,大字西古見,28.230806,129.252163,853.7578832247367,4229227031,True
土佐清水大津簡易郵便局,高知県,土佐清水市,大津東部・西部,32.75360999556943,132.80219794198126,853.7664628047814,4932160413,False
北見大和郵便局,北海道,北見市,留辺蘂町大和,43.739775,143.450596,858.2740013556873,6543438633,False
西阿室郵便局,鹿児島県,瀬戸内町,大字実久,28.111258,129.221004,863.2900363642239,4229113723,True
瑞穂簡易郵便局,北海道,北見市,瑞穂,43.895647,143.637527,864.0455183227305,6543657024,False
浅茅野郵便局,北海道,浜頓別町,字共和,45.213101,142.226377,866.6927572507402,6742615831,False
上風連郵便局,北海道,別海町,上風連,43.267631,145.09961,871.7057528400135,6445702722,False
立山簡易郵便局,鹿児島県,西之表市,安城,30.612826,131.046471,872.3161158428478,4531703341,True
朱鞠内郵便局,北海道,幌加内町,字共栄,44.281505,142.161476,878.8269049149382,6642313244,False
常室簡易郵便局,北海道,浦幌町,常豊,42.868642,143.670024,880.4181930957618,6443254321,False
歌島簡易郵便局,北海道,島牧村,字歌島,42.777219,140.151929,882.9305960923705,,False
富美簡易郵便局,北海道,湧別町,富美,44.141011,143.51107,883.1677223911639,6643146044,False
姉別郵便局,北海道,浜中町,姉別１丁目,43.194454,145.194032,888.1069717014982,6445613523,False
黒島郵便局,沖縄県,竹富町,字黒島,24.238554,124.014289,892.4617939866267,3624208131,True
新和郵便局,北海道,日高町,字正和,42.544147,142.334172,904.8556468193383,6342625623,False
仁々志別簡易郵便局,北海道,釧路市,阿寒町中仁々志別,43.17417466613885,144.22276590093435,912.6971567316077,6444610744,False
開陽郵便局,北海道,中標津町,北中,43.597386,144.913892,913.1893412989162,6544371331,False
舟志簡易郵便局,長崎県,対馬市,舟志,34.611255724390354,129.4373794445462,913.8675328014732,5129733424,True
蕨簡易郵便局,長崎県,五島市,蕨町,32.82467,128.885562,917.0706152372156,4928178044,True
屈斜路郵便局,北海道,弟子屈町,字屈斜路原野,43.556683,144.326441,921.5637633757976,6544226633,False
五島椛島郵便局,長崎県,五島市,本窯町,32.770204,128.991612,925.8382916954899,4928172914,True
平鍋郵便局,高知県,北川村,大字平鍋,33.513057,134.121103,933.1238472648768,5034201941,False
若里簡易郵便局,北海道,湧別町,計呂地,44.05771075369091,143.74893804762584,938.8118245154741,6643056944,False
抜海郵便局,北海道,稚内市,大字抜海村字バッカイ,45.310832,141.621482,943.1695946024088,6741747923,False
幌満郵便局,北海道,様似町,字幌満,42.076363,143.035369,948.0479963861721,6343009222,False
智恵文郵便局,北海道,名寄市,智恵文八幡,44.455217,142.413221,949.3415502150077,6642534331,False
東城郵便局,鹿児島県,奄美市,大字摺勝,28.296112,129.457205,954.8079003777716,4229335641,True
瀬戸瀬郵便局,北海道,遠軽町,瀬戸瀬西町,44.010244,143.421558,954.8245454183018,6643031321,False
川南簡易郵便局,北海道,士別市,上士別町,44.10715332910663,142.50569672622046,962.9148581201786,6642142034,False
千軒簡易郵便局,北海道,福島町,字千軒,41.556884,140.267702,964.4459792302501,6240226134,False
竹屋敷簡易郵便局,高知県,四万十市,富山下古尾,33.093361945246464,132.90170334811214,970.4734529651303,4932571211,False
安芸古井簡易郵便局（一時閉鎖）,高知県,安芸市,東川島,33.642641,134.0099,978.5924953955584,,False
日吉簡易郵便局,北海道,北見市,字日吉,43.980567,143.947379,979.4383950075154,6543777542,False
与路郵便局,鹿児島県,瀬戸内町,大字与路,28.044539,129.164096,986.0436847914189,4229015313,True
豊原簡易郵便局,北海道,別海町,豊原,43.435501,145.017112,987.7535829249787,6545102114,False
計呂地郵便局,北海道,湧別町,志撫子,44.101854,143.728391,990.9959883179712,6643152812,False
兜沼郵便局,北海道,豊富町,字兜沼,45.221327,141.698988,997.2448569721415,6741656542,False
奈留島大串簡易郵便局,長崎県,五島市,奈留町大串,32.864197227200826,128.89241852151036,1001.1544423980786,4928273132,True
達布郵便局,北海道,小平町,字達布,44.050441,141.85735,1003.7215954861724,6641066821,False
婦美簡易郵便局（一時閉鎖）,北海道,積丹町,大字婦美町,43.312533,140.545889,1012.1131624156513,6440747341,False
楠山簡易郵便局,高知県,宿毛市,橋上町楠山,33.03904841456484,132.69913141981314,1012.2215138639358,4932454542,False
北見栄郵便局,北海道,佐呂間町,字栄,43.957173,143.66082,1012.4578832402204,6543754244,False
上武佐簡易郵便局,北海道,中標津町,字俵橋,43.617169,144.996883,1015.7785326910156,6544374922,False
片泊簡易郵便局,鹿児島県,三島村,大字黒島,30.833495,129.911633,1020.96769826067,4629270222,True
東瓜幕簡易郵便局,北海道,鹿追町,東瓜幕,43.165962149536554,143.10918836113655,1030.512325557148,6443509843,False
遠軽社名渕簡易郵便局,北海道,遠軽町,社名淵,44.07159199776087,143.43771012590565,1039.5166050883022,6643038531,False
阿歴内簡易郵便局,北海道,標茶町,字阿歴内,43.093495,144.574359,1044.9631977019483,6444541522,False
有明郵便局,北海道,羽幌町,字築別,44.448665,141.758334,1050.1742412899355,6641563043,False
政和簡易郵便局,北海道,幌加内町,字政和第二,44.136187,142.151653,1050.5288314636903,6642116213,False
宗谷郵便局,北海道,稚内市,大字宗谷村字宗谷,45.48623806229747,141.88089894000768,1050.9727452313357,6841178014,False
西舎郵便局,北海道,浦河町,字杵臼,42.193592,142.861321,1053.4538635773156,6342263822,False
尾田郵便局,北海道,大樹町,字尾田,42.537288,143.189627,1056.4028081071976,6343614513,False
袰月郵便局,青森県,今別町,大字袰月,41.219846,140.542586,1065.9392307697635,6140646314,False
北見相生郵便局,北海道,津別町,字布川,43.542117,143.983561,1068.052633377754,6543275821,False
上名寄郵便局,北海道,下川町,上名寄第１,44.314987,142.558633,1069.6242206163442,6642347443,False
大誉地郵便局,北海道,足寄町,大誉地本町,43.390042,143.680537,1070.8430919575226,6543056434,False
中渚滑簡易郵便局,北海道,紋別市,上渚滑町中渚滑,44.30440484244265,143.29332737679252,1080.6356457926956,6643326332,False
原歌簡易郵便局,北海道,島牧村,字原歌町,42.68767,139.983808,1080.7350525392878,6439072841,False
阿室郵便局,鹿児島県,宇検村,大字平田,28.255845,129.201591,1084.2948704532655,4229310631,True
日高目黒郵便局,北海道,えりも町,字目黒,42.128313,143.314394,1086.442290128838,6343125513,False
和田簡易郵便局,北海道,根室市,西和田,43.26817,145.540958,1090.161219960882,6445742312,False
佐護郵便局,長崎県,対馬市,佐護,34.626217,129.34772,1090.6124704960196,5129725722,True
十弗簡易郵便局,北海道,豊頃町,十弗宝町,42.856402,143.503065,1091.0149209265164,6443242033,False
手々郵便局,鹿児島県,徳之島町,手々,27.887926,128.934649,1111.81207164143,4128676442,True
大井簡易郵便局,高知県,安芸市,東川大井,33.5820103030141,133.98002311603736,1114.6877165191404,5033279834,False
上利別郵便局,北海道,足寄町,上利別本町,43.351294,143.604074,1124.649709642989,6543042812,False
東別簡易郵便局（一時閉鎖）,北海道,新ひだか町,字越海町,42.28108,142.520171,1126.6692116043519,6342343141,False
幾久山簡易郵便局,長崎県,五島市,玉之浦町幾久山,32.644238,128.70431,1131.4539281601335,4828757614,True
日高泉簡易郵便局,北海道,新冠町,字若園,42.485556,142.436262,1139.4780627787734,6342538424,False
沼牛簡易郵便局,北海道,幌加内町,字下幌加内,43.954691,142.158481,1142.6564534576466,6542714241,False
落石郵便局,北海道,根室市,落石西,43.18548,145.504562,1151.3690767107485,6445642014,False
朱円簡易郵便局,北海道,斜里町,字朱円,43.904818,144.751115,1156.4029333264227,6544668031,False
下頓別郵便局,北海道,浜頓別町,字下頓別,45.047377019183436,142.313204,1156.493953161793,6742425531,False
恩根内郵便局,北海道,美深町,字大手,44.59822676534365,142.3053600847254,1157.543794710679,6642721434,False
豊郷簡易郵便局,北海道,日高町,字豊郷,42.507925,142.180022,1157.9277180615888,,False
硫黄島郵便局,鹿児島県,三島村,大字硫黄島,30.782171,130.278326,1165.6881525747199,4630123234,True
二宮簡易郵便局,北海道,豊頃町,十弗宝町,42.856263,143.503217,1166.2258567163778,6443242034,False
西海簡易郵便局,鹿児島県,南種子町,西海,30.418198,130.866273,1188.4584870274632,4530560912,True
後志豊浜簡易郵便局,北海道,島牧村,字豊浜,42.729949024505615,140.08573558847274,1189.286981103173,6440007642,False
稲里簡易郵便局,北海道,むかわ町,穂別稲里,42.86707292745226,142.15922257031855,1191.8914356253147,,False
美留和郵便局,北海道,弟子屈町,字美留和原野,43.555327,144.436767,1193.5530960864214,6544236442,False
庫富簡易郵便局,北海道,日高町,字庫富,42.526699,142.150885,1195.8936483143352,6342613211,False
温根沼簡易郵便局,北海道,根室市,幌茂尻,43.277807,145.504711,1201.7006571903748,6445743014,False
美谷簡易郵便局,北海道,寿都町,字歌棄町美谷,42.82748918284567,140.30694553585045,1204.336526451878,6440129423,False
今里簡易郵便局,鹿児島県,大和村,大字今里,28.325605,129.276606,1207.6220024644733,4229329211,True
稚内富磯簡易郵便局,北海道,稚内市,大字宗谷村字富磯,45.452907891154986,141.87506081936507,1217.7734176497788,6841174013,False
磯谷郵便局,北海道,寿都町,字磯谷町島古丹,42.858987,140.348563,1217.9226505931279,6440223722,False
松神簡易郵便局,青森県,深浦町,大字松神,40.54650550936179,139.94518299736845,1220.423795290113,6039675541,False
焼尻郵便局,北海道,羽幌町,大字焼尻字東浜,44.439099,141.427061,1222.8205683404353,6641532431,True
有芸簡易郵便局,岩手県,岩泉町,上有芸,39.772486,141.811605,1228.2988862954994,5941562442,False
湯別簡易郵便局,北海道,寿都町,字湯別町下湯別,42.75096828853933,140.28427240731327,1237.5690282053001,6440120221,False
乙忠部郵便局,北海道,枝幸町,乙忠部,44.78152,142.718567,1252.5227285397857,6742153734,False
上芭露郵便局,北海道,湧別町,上芭露,44.096185,143.658428,1252.8816938169655,6643151241,False
辺塚簡易郵便局,鹿児島県,南大隅町,佐多辺塚,31.093493,130.827191,1253.2875276983646,4630561611,False
長後簡易郵便局,青森県,佐井村,大字長後字長後,41.36956,140.828109,1253.4481364734534,6240064613,False
一ノ橋郵便局,北海道,下川町,一の橋一の橋,44.3186644923209,142.77135531877386,1258.9802876143374,6642368121,False
鷹泊郵便局,北海道,深川市,ウッカ,43.884723,142.100942,1264.4120716173059,6542606811,False
花良治簡易郵便局,鹿児島県,喜界町,大字花良治,28.291136502223438,129.9779361003814,1269.0331446468506,4229374833,True
名駒郵便局,北海道,蘭越町,名駒町,42.816361,140.446262,1272.4750756512879,6440137543,False
久賀島郵便局,長崎県,五島市,久賀町,32.793328170963626,128.87089694132345,1274.2289056121451,4928165921,True
釧路太田郵便局,北海道,厚岸町,太田南,43.088661,144.799323,1274.9461670512699,6444560342,False
日高朝日簡易郵便局,北海道,新冠町,字大富,42.39941421066571,142.373086573608,1275.6074466550474,6342427944,False
渡島御崎簡易郵便局,北海道,函館市,御崎町,41.798148,141.175285,1279.0023674338709,6241515433,False
芽登郵便局,北海道,足寄町,芽登本町,43.276602,143.426369,1284.2377647387207,6443733411,False
浦士別郵便局,北海道,網走市,字浦士別,43.888672,144.409731,1286.7182738662873,6544636242,False
雄冬郵便局,北海道,増毛町,雄冬,43.737975,141.341533,1295.5085701509731,6541428732,False
清畠郵便局,北海道,日高町,字厚賀町,42.4556265600011,142.1776075083526,1307.3281362588218,6342514431,False
市郵便局,鹿児島県,奄美市,大字市,28.227425,129.452819,1312.674024534283,4229237613,True
伊関簡易郵便局,鹿児島県,西之表市,伊関,30.769012,131.066969,1313.1993316096268,4631102514,True
節子簡易郵便局,鹿児島県,瀬戸内町,大字古仁屋,28.1662410512214,129.37902845013826,1313.3631452618895,4229139034,True
薫別郵便局,北海道,標津町,字薫別,43.793673,145.060203,1320.8984072888748,6545505422,False
春遠簡易郵便局,高知県,大月町,大字春遠,32.819096,132.748208,1321.8312338637509,4932158924,False
居辺郵便局,北海道,士幌町,字下居辺,43.139975,143.367662,1322.7359655389332,6443526934,False
木間内簡易郵便局,北海道,厚沢部町,字木間内,41.935206,140.369314,1324.3242089823323,6240722921,False
広野郵便局,北海道,芽室町,上伏古,42.755147,143.008937,1328.2724606542733,6443100041,False
安城簡易郵便局,鹿児島県,西之表市,安城,30.650877,131.043581,1328.893520538093,4531708312,True
中川内簡易郵便局,高知県,室戸市,羽根町,33.392827831367974,134.0863574641495,1328.9959312399753,5034007622,False
川合簡易郵便局（一時閉鎖）,北海道,新ひだか町,字川合,42.333064,142.490977,1334.709364819762,6342339934,False
音調津郵便局,北海道,広尾町,字ルベシベツ,42.223718,143.316858,1342.7981071598767,6343226534,False
安田簡易郵便局,沖縄県,国頭村,字安田,26.74511,128.315101,1345.8881573031176,4028029513,False
西谷郵便局,愛媛県,久万高原町,西谷,33.515356,132.960948,1351.0994477228965,5032271644,False
風連旭簡易郵便局,北海道,名寄市,風連町字旭,44.272106807445056,142.46492972358885,1354.398273266156,6642332731,False
奥屋内簡易郵便局,高知県,四万十市,西土佐奥屋内下,33.112868,132.706398,1370.224921331038,4932553641,False
北見秋田簡易郵便局,北海道,置戸町,幸岡,43.736727,143.619585,1372.6654859581806,6543448923,False
中津川簡易郵便局,高知県,四万十町,上秋丸,33.301606,133.100716,1374.1811135865157,4933706811,False
宮野郵便局,北海道,せたな町,大成区花歌,42.220714,139.866255,1375.0502172318177,6339266914,False
小平本郷郵便局,北海道,小平町,字本郷,43.9973,141.715146,1380.406838938205,6541759731,False
船間簡易郵便局,鹿児島県,肝付町,岸良,31.187457,130.990591,1384.9142062736773,4630672913,False
ぬかびら源泉郷郵便局,北海道,寿都町,字樽岸町樽岸・小川,42.766492,140.250694,1398.0418378793008,6440121033,False
内路郵便局,北海道,礼文町,大字香深村字ナイヲロ,45.389785,141.053534,1400.9727894077569,6841006434,True
滝川簡易郵便局,鹿児島県,喜界町,大字滝川,28.317708,129.967396,1408.7082260033676,4229378712,True
伊原間郵便局,沖縄県,石垣市,字伊原間,24.508501,124.2824,1416.8192670941967,3624621221,True
上浦幌郵便局,北海道,浦幌町,宝生,43.08381674189156,143.6045685215103,1426.6036730457233,6443540812,False
野深郵便局,北海道,浦河町,字姉茶,42.248802,142.755159,1427.4474195691116,6342269034,False
止別郵便局,北海道,小清水町,字止別,43.920976,144.519998,1427.4837363905872,6544740141,False
旭浜簡易郵便局,北海道,大樹町,字旭浜,42.420533804005636,143.3898184928299,1428.309845189211,6343530113,False
大泊郵便局,鹿児島県,南大隅町,佐多馬籠,31.028302,130.685429,1429.9794028462936,4630453424,False
ぬかびら源泉郷郵便局,北海道,上士幌町,字ぬかびら源泉郷,43.36512589761129,143.19179691297197,1430.756453540931,6543013534,False
青島簡易郵便局（一時閉鎖）,愛媛県,大洲市,長浜町青島,33.736153,132.487018,1436.3287723904343,5032438824,True
登栄床簡易郵便局,北海道,湧別町,登栄床,44.188760552353685,143.7388609451374,1442.884825467658,6643252931,False
八島簡易郵便局,山口県,上関町,大字八島,33.728833,132.140093,1447.9594647088434,5032417113,True
緑郵便局,北海道,清里町,緑町,43.719113,144.507479,1448.8864080423655,6544446023,False
日島簡易郵便局,長崎県,新上五島町,有福郷,32.913439069131854,128.95418048809978,1450.4639173913145,4928279632,True
安芸畑山簡易郵便局（一時閉鎖）,高知県,安芸市,畑山畑山,33.622226,133.922797,1451.974218931263,5033374342,False
永久保簡易郵便局,鹿児島県,屋久島町,船行永久保,30.355059,130.661121,1452.4238062552372,4530452242,True
龍飛岬郵便局,青森県,外ヶ浜町,字三厩龍浜,41.258089,140.348197,1459.177612298286,6140720744,False
塩浜簡易郵便局,長崎県,対馬市,横浦,34.388327,129.376713,1461.0002449856368,5129436031,True
湯泊郵便局,鹿児島県,屋久島町,湯泊,30.235151,130.479804,1462.5136200363195,4530238812,True
父野川郵便局,愛媛県,鬼北町,大字父野川中,33.32393,132.821882,1465.4521429215183,4932768544,False
佐久郵便局,北海道,中川町,字佐久,44.745033,142.048348,1475.6023767644215,6742009324,False
石倉郵便局,北海道,森町,字石倉町,42.159379,140.472046,1475.8735059037922,6340139722,False
勝浦簡易郵便局,鹿児島県,瀬戸内町,大字古仁屋,28.174593,129.347746,1478.176487963156,4229220744,True
御園郵便局,北海道,新ひだか町,字御園,42.409694,142.480056,1479.6193064932497,6342439812,False
東中浦郵便局,大分県,佐伯市,大字丹賀浦,32.948531,132.050768,1481.5783515845876,4932303433,False
勝山郵便局,北海道,置戸町,安住,43.637787,143.506955,1489.8775341842902,6543346041,False
日進郵便局,北海道,名寄市,風連町字日進,44.248716,142.518113,1493.4239072532382,6642249134,False
岩岡簡易郵便局,鹿児島県,中種子町,田島,30.491343,130.890663,1497.6043852445398,4530578134,True
福住郵便局,北海道,美幌町,字福住,43.773013,144.171396,1498.7963321868715,,False
豊畑簡易郵便局,北海道,新ひだか町,字田原,42.380835,142.461921,1498.9329495065754,6342435642,False
本目郵便局,北海道,島牧村,字本目,42.746861,140.133139,1509.8457667319474,6440019041,False
力昼郵便局,北海道,苫前町,字力昼,44.229021,141.658027,1510.3352509951849,6641257223,False
美葉牛簡易郵便局（一時閉鎖）,北海道,北竜町,字美葉牛,43.80102,141.837553,1515.3600733352107,6541566711,False
屋仁郵便局,鹿児島県,奄美市,大字屋仁,28.498323,129.656295,1526.2284613805607,4229559243,True
十勝野塚郵便局,北海道,広尾町,字野塚東通,42.356895,143.292212,1528.4491003104451,6343422334,False
大宮郵便局,高知県,四万十市,西土佐藪ケ市,33.14119209406899,132.75043435982082,1534.058906464313,4932566033,False
西表島郵便局,沖縄県,竹富町,字西表,24.388267,123.74701,1545.6212909444866,3623456942,True
上荒川簡易郵便局,長崎県,新上五島町,荒川郷,32.922497,129.050575,1548.0993529879022,4929300431,True
牛滝簡易郵便局,青森県,佐井村,大字長後字牛滝,41.291302,140.801989,1558.3595831866803,6140764433,False
双見簡易郵便局,北海道,函館市,双見町,41.992427,140.894741,1563.922816808789,6240779121,False
温根別郵便局,北海道,士別市,温根別町,44.178965,142.276139,1571.3747054503915,6642221213,False
雄信内郵便局,北海道,天塩町,雄信内,44.898044,141.919816,1571.9572002925897,6741277343,False
入舸郵便局,北海道,積丹町,大字入舸町,43.367109,140.475334,1573.6305541476383,6540034811,False
沢谷簡易郵便局,徳島県,那賀町,阿津江,33.85364740425322,134.28491304433635,1580.3066464474061,5034622224,False
郷郵便局,高知県,津野町,芳生野乙,33.449159,133.020289,1580.815366091532,5033103143,False
松浦簡易郵便局,北海道,福島町,字吉野,41.43088656989673,140.22449112880386,1580.8599679277315,6240111742,False
旭岡郵便局,北海道,むかわ町,生田,42.605493,142.077386,1583.959540261686,6342702631,False
串郵便局,愛媛県,伊方町,正野,33.365377,132.046233,1588.302119683743,5032003343,False
老節布簡易郵便局,北海道,富良野市,字老節布,43.237268,142.47251,1591.220051113613,6442638724,False
住用郵便局,鹿児島県,奄美市,大字役勝字下役勝,28.265031,129.407904,1592.4631263454653,4229331243,True
口屋内郵便局,高知県,四万十市,西土佐口屋内,33.093546,132.804545,1593.7163665758071,4932561412,False
北平郵便局,愛媛県,大洲市,河辺町三嶋,33.510976,132.794043,1602.298463202463,5032261323,False
尾崎郵便局,宮崎県,椎葉村,大河内栂尾,32.403865,131.229526,1613.517892724649,4831418814,False
西泊郵便局,高知県,大月町,大字西泊,32.781193,132.729567,1613.561555634473,4932153832,False
豊里郵便局,北海道,大空町,女満別豊里,43.890055,144.121561,1615.1255843894012,6544606943,False
上更別郵便局,北海道,更別村,字上更別,42.610699,143.248118,1619.7016422580361,6343713924,False
小向郵便局,北海道,紋別市,小向,44.276773,143.452316,1620.9208593798523,6643333611,False
竹之浦簡易郵便局,鹿児島県,南大隅町,佐多馬籠,31.045746,130.716481,1622.4702411530202,4630455714,False
幌成簡易郵便局,北海道,深川市,ウッカ,43.849591566866366,142.10162284094204,1623.3863927479874,6542601833,False
大中尾簡易郵便局,鹿児島県,南大隅町,佐多伊座敷,31.110267,130.775584,1633.8998746416314,4630563211,False
円簡易郵便局,鹿児島県,龍郷町,円,28.46588223261243,129.58792199266543,1638.599095979432,4229545733,True
用居郵便局,高知県,仁淀川町,用居,33.640568,133.126626,1638.8493537967302,5033316033,False
吉野郵便局,北海道,浦幌町,吉野２区,42.776554,143.607524,1640.0107829628012,6443143821,False
城ケ沢簡易郵便局,青森県,むつ市,大字城ケ沢字角違,41.205304,141.083678,1641.7978316981003,6141604641,False
尾八重簡易郵便局（一時閉鎖）,宮崎県,西都市,大字尾八重,32.26909507896568,131.31170894908476,1647.4948472283809,4831322424,False
中西別郵便局,北海道,別海町,中西別光町,43.366225,144.988783,1648.2856932457332,6544073933,False
口之島郵便局,鹿児島県,十島村,大字口之島,29.98721,129.920414,1648.7651302728493,4429778323,True
名柄郵便局,鹿児島県,宇検村,大字名柄,28.252229,129.248915,1652.9653628002372,4229310924,True
熊牛郵便局,北海道,清水町,字熊牛,43.014783,142.952035,1659.5202639676095,6442471633,False
鹿児島中央郵便局黒島分室,鹿児島県,三島村,大字黒島,30.835677,129.956086,1664.7203784730373,4629270614,True
嵯峨島簡易郵便局,長崎県,五島市,三井楽町嵯峨島,32.72946493646889,128.59897537810832,1669.336646840663,4928047742,True
鹿浦郵便局,鹿児島県,伊仙町,大字阿三,27.692977,128.919098,1671.1278472958002,4128473321,True
出羽島簡易郵便局,徳島県,牟岐町,大字牟岐浦,33.6365639574353,134.42457772490468,1673.875945655129,5034336324,True
伊奈郵便局,長崎県,対馬市,伊奈,34.559834,129.314763,1674.1256094289988,5129627511,True
置杵牛簡易郵便局,北海道,美瑛町,字置杵牛,43.564493,142.572338,1680.8432162861166,6542247542,False
登簡易郵便局（一時閉鎖）,北海道,喜茂別町,字福丘,42.7428,140.948452,1681.1542915531993,6440079522,False
山根郵便局,岩手県,久慈市,山根町下戸鎖,40.08553,141.710775,1683.7467925456708,6041150624,False
戸島郵便局,愛媛県,宇和島市,戸島,33.198599,132.360206,1685.3981827497892,4932623844,True
似湾郵便局,北海道,むかわ町,穂別仁和,42.659055,142.077118,1691.6010661920402,6342709611,False
武徳簡易郵便局,北海道,士別市,武徳町,44.20147864614509,142.44483456716245,1697.9078588722814,6642234521,False
荷負郵便局,北海道,平取町,字荷負,42.677795,142.196622,1698.4205208771896,6442011523,False
山間簡易郵便局,鹿児島県,奄美市,大字山間,28.24327542299465,129.4144890573608,1699.1052736974677,4229239311,True
中須簡易郵便局,長崎県,五島市,玉之浦町中須,32.635062,128.67017,1707.925184583572,4828756321,True
北見幌内郵便局,北海道,雄武町,幌内上町,44.657014,142.878333,1712.5464899173612,6642778034,False
北川郵便局,徳島県,那賀町,木頭北川,33.77246504425095,134.09998549282994,1715.2362180544344,5034502742,False
胆振豊田郵便局,北海道,むかわ町,穂別豊田,42.71285,142.115807,1716.9283471452404,6442005932,False
古部簡易郵便局,北海道,函館市,古部町,41.86567085012464,141.11737275358502,1719.3079659698278,6241603934,False
岡ノ内郵便局,高知県,香美市,岡ノ内,33.722971,133.940807,1720.227231000136,5033476534,False
幌糠郵便局,北海道,留萌市,大字留萌村字東幌糠,43.851845,141.760706,1721.1119560446793,6541662022,False
茎永郵便局,鹿児島県,南種子町,茎永,30.389119,130.942408,1721.2438864599233,4530476532,True
西山郵便局,鹿児島県,薩摩川内市,下甑町瀬々野浦,31.689582,129.693945,1722.2390813528934,4729452541,True
正木簡易郵便局（一時閉鎖）,高知県,宿毛市,山北,33.004352,132.682654,1728.3239228955415,4932450441,False
那久簡易郵便局,島根県,隠岐の島町,那久浜那久,36.216734,133.204309,1730.4576519550574,,True
島泊簡易郵便局,鹿児島県,南大隅町,佐多伊座敷,31.062437,130.678484,1732.3492475394607,4630457414,False
田沢湖高原簡易郵便局,秋田県,仙北市,田沢湖生保内,39.778985,140.76203637679254,1736.3184380104283,,False
中愛別郵便局,北海道,愛別町,字中央町,43.895343,142.654651,1739.7891640366304,6542657214,False
富沢郵便局,北海道,新ひだか町,字蓬栄,42.277516,142.605828,1741.7027698866166,6342343814,False
篠川郵便局,鹿児島県,瀬戸内町,大字西古見,28.222531,129.294968,1741.9019175593585,4229226341,True
落合郵便局,北海道,南富良野町,字落合,43.125343633434134,142.66475716037374,1742.1440223072152,6442555311,False
頭集簡易郵便局,高知県,大月町,大字頭集,32.802568,132.687521,1744.1024517827589,4932156513,False
熱郛郵便局,北海道,黒松内町,字熱郛原野,42.672542,140.377581,1746.871941269066,6440030031,False
泉川簡易郵便局,高知県,仁淀川町,泉,33.485922,133.10279,1754.7993932318957,5033108813,False
月灘郵便局,高知県,大月町,大字才角,32.768074,132.766681,1758.1811797644798,4932162112,False
小才角簡易郵便局,高知県,土佐清水市,大津東部・西部,32.75785518300617,132.78346754506086,1760.5728015112843,4932160243,False
本別海郵便局,北海道,別海町,本別海,43.385732,145.287561,1761.0535654707492,6545026313,False
阿嘉郵便局,沖縄県,座間味村,字阿嘉,26.190217,127.281756,1764.371317158636,3927222243,True
登川郵便局,北海道,夕張市,登川,42.932011,142.093229,1764.9568061804016,6442301734,False
魚神山郵便局,愛媛県,愛南町,魚神山,33.056422,132.409429,1766.2111732356109,4932436244,False
上然別簡易郵便局,北海道,音更町,字上然別,43.052976,143.083468,1767.7252387707492,6443406623,False
愛山郵便局,北海道,愛別町,字愛山町３区,43.84930915136543,142.6949343721873,1770.1613656135119,6542651543,False
釜津田簡易郵便局,岩手県,岩泉町,釜津田,39.783927,141.55811,1774.6183346802814,5941544421,False
真更川簡易郵便局,新潟県,佐渡市,真更川,38.289312,138.444214,1775.2229090607527,5738334541,True
石狩吉野郵便局,北海道,新十津川町,字吉野,43.594787,141.730944,1778.5239426359215,6541351814,False
安丸郵便局,高知県,香美市,安丸,33.729028,133.894271,1778.6350897093937,5033477123,False
登尾簡易郵便局,鹿児島県,南大隅町,根占辺田,31.133957,130.745835,1783.1736808040669,4630556921,False
厳原久和簡易郵便局,長崎県,対馬市,久和,34.128961,129.256135,1783.444058582339,5129125014,True
舎熊郵便局,北海道,増毛町,箸別,43.869455,141.579033,1784.1155299430168,6541644614,False
下金山簡易郵便局,北海道,南富良野町,字下金山,43.198397,142.41608413037756,1784.5149002679093,6442633334,False
昆布温泉簡易郵便局,北海道,ニセコ町,字ニセコ,42.839329,140.620582,1787.2840277399896,,False
松原郵便局,高知県,檮原町,松原,33.315325,132.972645,1788.0821118602348,4932777744,False
手島簡易郵便局（一時閉鎖）,香川県,丸亀市,手島町,34.399956,133.671477,1788.7063621274842,5133457343,True
安居島簡易郵便局,愛媛県,松山市,安居島,34.06829,132.70446,1791.1469853689027,5132058612,True
磯分内郵便局,北海道,標茶町,磯分内,43.374878,144.55718,1792.2078533182425,6544044443,False
藤ノ川簡易郵便局,高知県,四万十市,西土佐藤ノ川,33.1582,132.840243,1793.4354349381865,4932568733,False
土佐清水貝川郵便局,高知県,土佐清水市,貝ノ川浦北部,32.76171,132.811828,1794.8097182113588,4932161424,False
焼山郵便局,青森県,十和田市,大字法量,40.575761,140.983688,1794.9099993190725,6040679821,False
東山郵便局,北海道,富良野市,字東山,43.215742,142.442709,1797.098625751434,6442635534,False
西峰郵便局,高知県,大豊町,西峰久生野,33.80761281649042,133.82560071056443,1798.2876513576591,5033566633,False
若松郵便局,北海道,せたな町,北檜山区若松,42.357534,139.908161,1799.3413901823733,6339472243,False
余別郵便局,北海道,積丹町,大字余別町,43.327338,140.379659,1799.3698898147243,6440739014,False
北大東郵便局,沖縄県,北大東村,字港,25.954447,131.289375,1803.6606117501094,3831724331,True
宗呂簡易郵便局,高知県,土佐清水市,宗呂丙宗呂上,32.8051,132.819367,1805.5508651547511,4932166541,False
古満目郵便局,高知県,大月町,大字古満目,32.789838,132.685208,1808.8263950581636,4932154444,False
瓢丹渕郵便局,宮崎県,西都市,大字片内,32.215166,131.313886,1810.1247865112969,4831225533,False
崎郵便局,島根県,海士町,大字崎,36.049012,133.085702,1814.749165491245,5433005644,True
新湊郵便局,北海道,利尻町,沓形字新湊,45.204752,141.140457,1820.9908516278879,6741614131,True
陸奥船岡郵便局,青森県,外ヶ浜町,字平舘今津尻高,41.111554,140.632424,1822.4534707867122,6140553023,False
中和簡易郵便局,北海道,和寒町,字三笠,43.99855016094714,142.4121591447178,1822.7456986305633,6542739244,False
津和崎郵便局,長崎県,新上五島町,津和崎郷,33.147918,129.110396,1825.6330856106551,4929507844,True
関内郵便局,北海道,せたな町,大成区長磯,42.134235,139.932534,1827.8476867087902,6339176421,False
人舞郵便局,北海道,清水町,字下佐幌,43.031974,142.924676,1828.0108761499944,6442473344,False
小繋簡易郵便局,岩手県,一戸町,小繋字東田子,40.124712,141.262012,1828.133890438727,6041124044,False
中津郵便局,愛媛県,久万高原町,中津,33.542681,133.0454,1833.645254604506,5033205321,False
布伏内郵便局,北海道,釧路市,阿寒町大正,43.1752306671039,144.10007627476642,1836.818035306173,,False
大隅郡簡易郵便局,鹿児島県,南大隅町,佐多郡,31.066299,130.733339,1837.6941310367204,4630457843,False
入河内郵便局,高知県,安芸市,東川入河内,33.556151,133.959545,1842.6420401308046,5033276642,False
豊川郵便局,北海道,北見市,字豊川,44.063032,144.030368,1843.0066884070216,6644007232,False
上尾幌郵便局,北海道,厚岸町,上尾幌,43.032115,144.612662,1844.9409524967405,6444443933,False
越野尾郵便局,宮崎県,西米良村,大字越野尾,32.197335977430996,131.24219150322278,1847.8193282416246,4831213932,False
名音郵便局,鹿児島県,大和村,大字戸円,28.337049,129.313936,1850.774655192028,4229420513,True
門静簡易郵便局,北海道,厚岸町,門静２丁目,43.05708605335988,144.78894088396262,1854.8127115332454,6444466333,False
浅藻郵便局,長崎県,対馬市,浅藻,34.107991,129.208889,1855.532410312238,5129112643,True
島越郵便局（一時閉鎖）,岩手県,田野畑村,羅賀,39.916141,141.936961,1856.1233500587884,,False
小綱郵便局,長崎県,対馬市,小綱,34.417487,129.286073,1856.6995667953106,5129520222,True
大戸瀬簡易郵便局,青森県,深浦町,大字田野沢,40.758972,140.034065,1856.924049946892,6140101221,False
三ノ原簡易郵便局,北海道,留寿都村,字三ノ原,42.69433,140.839542,1860.785057680816,6440063713,False
猿払簡易郵便局,北海道,猿払村,猿払,45.276396,142.230479,1862.1410050449142,6742713812,False
七ツ山郵便局,宮崎県,諸塚村,大字七ツ山七ツ山,32.561094,131.27893,1869.6850665628936,4831627214,False
富内郵便局,北海道,むかわ町,穂別平丘,42.782339,142.219281,1871.1583554941556,6442113743,False
朗根内郵便局,北海道,美瑛町,字横牛,43.628286,142.577339,1871.520041095533,6542345613,False
久見簡易郵便局,島根県,隠岐の島町,久見,36.320926,133.23107,1875.713637310658,5433318832,True
幸福簡易郵便局,北海道,中札内村,新生,42.743775799420675,143.16203298565975,1876.0547843774448,6443019224,False
門馬郵便局,岩手県,宮古市,門馬田代,39.63286660962711,141.43975872490466,1889.6013524861257,5941335533,False
見立簡易郵便局,宮崎県,日之影町,大字見立,32.780383905623566,131.44405153585052,1890.920406831722,4931133541,False
西達布郵便局,北海道,富良野市,字老節布,43.218632,142.498036,1890.9491566878273,6442636922,False
水沢簡易郵便局,秋田県,鹿角市,八幡平,40.052208,140.816225,1892.3096181807423,6040066514,False
岬町簡易郵便局,北海道,羅臼町,岬町,44.10548593321383,145.24691831680016,1893.5185799939422,6645112942,False
四代簡易郵便局,山口県,上関町,大字長島,33.792776,132.054861,1894.7556744224569,5032505412,False
赤尾簡易郵便局,長崎県,新上五島町,赤尾郷,33.000047,129.160314,1898.4939792681716,4929410222,True
安居簡易郵便局,高知県,仁淀川町,川内谷,33.641124,133.196923,1904.7996311008342,5033316544,False
川湯駅前簡易郵便局,北海道,弟子屈町,川湯駅前２丁目,43.616707,144.456346,1906.8913620632109,6544334621,False
宗賀簡易郵便局,高知県,三原村,大字上下長谷,32.905572,132.86105,1910.1786891518964,4932268842,False
山越郵便局,北海道,八雲町,山越,42.229811,140.330581,1910.6723562209243,6340227632,False
樅ノ木簡易郵便局,高知県,いの町,小川,33.651318,133.276777,1910.799396941972,5033328211,False
久根田舎簡易郵便局,長崎県,対馬市,久根田舎,34.174219343955734,129.19208436508387,1912.1615607451267,5129210534,True
釜石大橋郵便局,岩手県,釜石市,甲子町第１地割,39.280114,141.718024,1912.7831136118152,5841753732,False
原口郵便局,北海道,松前町,字神山,41.602011,139.98353,1912.9077799165464,6239372821,False
上屋久吉田簡易郵便局,鹿児島県,屋久島町,吉田,30.433496485114706,130.46333794000765,1913.2939945960266,4530532711,True
渡島濁川郵便局,北海道,森町,字濁川,42.121355,140.443522,1914.9079141376862,6340134532,False
菅生簡易郵便局,徳島県,三好市,,33.874725,133.989535,1916.3555739317692,5033674933,False
高野簡易郵便局,高知県,檮原町,上折渡,33.392085,132.976126,1919.2839139862429,5032077811,False
木浦鉱山郵便局,大分県,佐伯市,大字木浦鉱山,32.824803,131.545978,1923.9197861570822,4931148343,False
島牧元町簡易郵便局,北海道,島牧村,字元町,42.685546,140.001434,1929.4734800646365,6440002013,False
幌呂郵便局,北海道,鶴居村,幌呂東４丁目,43.19858576095926,144.2625710885394,1937.1193413329258,6444623133,False
田部簡易郵便局,岩手県,葛巻町,田部,40.125048089534225,141.3727327405606,1938.1327226565097,6041125922,False
芦検簡易郵便局,鹿児島県,宇検村,大字芦検,28.287714904266466,129.2690757412185,1941.1502509578927,4229324141,True
魚貫崎簡易郵便局,熊本県,天草市,魚貫町池田,32.245991,129.982435,1944.048955620222,4829279841,False
水崎郵便局,長崎県,対馬市,嵯峨,34.357605,129.272131,1947.4197700278205,5129422144,True
芭露郵便局,北海道,湧別町,登栄床,44.150237,143.69114,1949.2090220261503,6643158512,False
河辺郵便局,愛媛県,大洲市,河辺町植松,33.49373,132.742834,1950.7960988181283,5032159912,False
西之郵便局,鹿児島県,南種子町,西之,30.370508,130.881524,1952.401956834388,4530474023,True
知々井簡易郵便局,島根県,海士町,大字知々井,36.077676,133.113144,1956.4368890905182,5433009913,True
荷軽部簡易郵便局,岩手県,久慈市,山形町荷軽部,40.149993,141.50949,1965.7596617320019,6041148022,False
江島簡易郵便局（一時閉鎖）,宮城県,女川町,江島字荒藪,38.399365,141.59399,1967.855582969324,5741447743,True
安満地簡易郵便局,高知県,大月町,大字安満地,32.80165998797983,132.65417707301677,1969.3124151345196,4932156212,False
惣川郵便局,愛媛県,西予市,野村町惣川,33.472274,132.787771,1980.0179574818565,5032166331,False
関簡易郵便局,新潟県,佐渡市,関,38.249706,138.415885,1980.2164687749455,5738239334,True
上鹿川簡易郵便局,宮崎県,延岡市,北方町上鹿川申,32.703316,131.475105,1984.6308699045037,4931034813,False
越裏門簡易郵便局,高知県,いの町,越裏門,33.728837,133.234419,1986.817366117072,5033417824,False
山三箇郵便局,宮崎県,美郷町,大字小原,32.467634,131.376009,1987.2706263760924,4831536011,False
万字仲町簡易郵便局,北海道,岩見沢市,栗沢町万字仲町,43.146623,141.982445,1990.4412007462809,6441577841,False
春立郵便局,北海道,新ひだか町,字春立,42.272042,142.484204,1992.6626404894237,6342332841,False
立川郵便局,高知県,大豊町,立川中和,33.848208,133.647914,1994.0021082180258,5033651144,False
本岐郵便局,北海道,津別町,字本岐,43.647855,143.989557,1996.206434885115,,False
古宮簡易郵便局,徳島県,美馬市,穴吹町古宮,33.965708,134.135387,1996.5631307120784,5034715044,False
尾幌郵便局,北海道,厚岸町,尾幌,43.013564,144.703805,2001.5030605944562,6444451632,False
坂嶺郵便局,鹿児島県,喜界町,大字中熊,28.340651,129.971506,2004.085491130566,4229470743,True
竹原簡易郵便局,高知県,中土佐町,竹原,33.33226668716519,133.10354483962627,2005.6027502198713,4933709834,False
丹羽郵便局,北海道,せたな町,北檜山区西丹羽,42.430778,139.931156,2007.350288292375,6339571432,False
金山郵便局,北海道,南富良野町,字下金山,43.138334,142.415298,2008.0229814798704,6442536331,False
沼袋郵便局,岩手県,田野畑村,千足,39.940356,141.833007,2008.0282988279369,5941762643,False
糠内郵便局,北海道,幕別町,字五位,42.783933,143.327878,2009.3564949573554,6443124611,False
鳧舞簡易郵便局,北海道,新ひだか町,字鳧舞,42.225773,142.622575,2017.5037107276853,6342247922,False
橘浦郵便局,高知県,大月町,大字橘浦,32.82362,132.656272,2017.7472446175882,4932158243,False
東祖谷郵便局,徳島県,三好市,,33.86792009286521,133.9044005945271,2019.893584726865,5033674212,False
十川郵便局,高知県,四万十町,小野,33.234934,132.859179,2020.9205831878633,4932668821,False
長谷簡易郵便局,鹿児島県,南種子町,長谷,30.444947,130.918712,2031.0108359419703,4530573314,True
音標郵便局,北海道,枝幸町,音標,44.707065,142.806092,2034.1359048711913,6742064434,False
軽舞郵便局,北海道,厚真町,字軽舞,42.666397,141.907952,2034.8037721398107,6341779243,False
カルルス温泉簡易郵便局,北海道,登別市,カルルス町,42.51684068411952,141.10878854426971,2036.9257373484813,6341602821,False
問寒別郵便局,北海道,幌延町,字問寒別,44.915432841562456,142.02164330443367,2037.842873749313,6742209143,False
石狩滝ノ上簡易郵便局,北海道,夕張市,滝ノ上,42.911843,141.973892,2038.3772506773425,6441279724,False
佐柳簡易郵便局（一時閉鎖）,香川県,多度津町,佐柳,34.338741,133.630315,2044.036681319816,5133450032,True
川渕簡易郵便局,山口県,下関市,豊北町大字粟野,34.329440640188324,130.97640168122615,2044.8879243318163,,False
寺野簡易郵便局,高知県,中土佐町,寺野,33.38115262199718,133.1284955358505,2046.0274275741854,5033015032,False
和田簡易郵便局,徳島県,三好市,,33.871999,133.870621,2050.367161237966,5033664941,False
大和簡易郵便局,北海道,豊浦町,字大和,42.645305,140.732831,2051.967954680273,6340757823,False
川口郵便局,高知県,四万十町,南川口,33.199314,133.081803,2053.425962481687,4933603643,False
西原郵便局,北海道,剣淵町,西原町,44.140605,142.321144,2055.813833030159,6642126543,False
友住郵便局,長崎県,新上五島町,友住郷,32.99888,129.174452,2058.354930423109,4929319344,True
大川郵便局（一時閉鎖）,高知県,大川村,小松,33.783979,133.465854,2061.2657076081987,5033534712,False
伊平屋郵便局,沖縄県,伊平屋村,字我喜屋,27.039238,127.969199,2065.8572579860397,4027474741,True
小鹿郵便局,長崎県,対馬市,小鹿,34.514201,129.433423,2067.4624686652746,5129631441,True
荒川郵便局,長崎県,五島市,玉之浦町荒川,32.667721,128.672028,2068.136000474244,4928050322,True
麦生簡易郵便局,鹿児島県,屋久島町,麦生,30.255762,130.600071,2068.387515854273,4530340831,True
下原簡易郵便局,長崎県,対馬市,下原,34.229202,129.21517,2069.7396186757246,5129217731,True
金沢簡易郵便局,岩手県,大槌町,金沢,39.443963,141.806151,2071.407665782191,5941163414,False
風合瀬簡易郵便局,青森県,深浦町,大字風合瀬,40.730716,140.015707,2077.2510525255016,6140007132,False
梅木郵便局,宮崎県,延岡市,北浦町三川内市尾内,32.77071,131.804157,2079.3691941499574,4931162414,False
下名野川簡易郵便局,高知県,仁淀川町,下名野川,33.564742,133.109073,2080.2293733743463,5033207843,False
火散布簡易郵便局,北海道,浜中町,丸山散布１丁目,43.03174,145.02595,2081.1381814962106,6445403233,False
大間越簡易郵便局,青森県,深浦町,大字大間越,40.489958,139.950322,2083.347309929725,6039578633,False
川上郵便局,徳島県,海陽町,神野,33.65992,134.309936,2084.379623163012,,False
豊岬郵便局,北海道,初山別村,字豊岬,44.569764,141.783741,2088.2575587956494,6641668223,False
鹿見郵便局,長崎県,対馬市,久原,34.514894,129.31568,2092.014718754652,5129621534,True
岩手浅内簡易郵便局,岩手県,岩泉町,二升石,39.8208921153807,141.72826101368233,2093.5330870449175,5941558832,False
八幡浜大島簡易郵便局,愛媛県,八幡浜市,大島,33.386551,132.340111,2099.4688593243545,5032026713,True
岩手大川郵便局,岩手県,岩泉町,大川,39.80226,141.658656,2105.057575459449,5941556223,False
槻木簡易郵便局,熊本県,多良木町,大字槻木,32.204952944100505,131.0197146232075,2105.316687993756,4831204141,False
石坂郵便局,北海道,大樹町,字石坂,42.450968,143.293595,2106.003013582883,6343524312,False
遊子谷簡易郵便局,愛媛県,西予市,城川町遊子谷,33.427973,132.765357,2106.957651965805,5032161113,False
白神郵便局,北海道,松前町,字白神,41.41254,140.172383,2108.7166563073893,6240019342,False
御槇郵便局,愛媛県,宇和島市,津島町御内,33.098034,132.623322,2108.807177590606,4932541944,False
大桐郵便局,高知県,越知町,峯,33.515953,133.199908,2117.817559596063,5033211544,False
陸中川内郵便局,岩手県,宮古市,夏屋,39.643567367161005,141.59261841849732,2119.206442450354,5941347712,False
大宝簡易郵便局,長崎県,五島市,玉之浦町大宝,32.60240863424439,128.654618713196,2123.6839314787117,4828752214,True
小田郵便局,新潟県,佐渡市,小田,38.230156,138.385614,2124.817957920642,,True
仁田郵便局,長崎県,対馬市,樫滝,34.534004,129.3464,2130.2138843776434,5129624721,True
下中簡易郵便局,鹿児島県,南種子町,下中,30.375008,130.911383,2130.561391125923,4530475222,True
平山郵便局,鹿児島県,南種子町,平山,30.435005,130.955239,2132.6541726691503,4530572612,True
奥郵便局,沖縄県,国頭村,字奥,26.836963,128.286795,2134.4625351538643,4028220224,False
尾崎郵便局,長崎県,対馬市,尾崎,34.312465,129.224382,2138.074790084843,5129317724,True
緑郵便局,愛媛県,愛南町,緑丙,33.015515,132.596967,2139.798942126755,4932441744,False
平島郵便局,長崎県,西海市,平島,33.000382,129.238586,2142.318174591215,4929410911,True
小浜島郵便局,沖縄県,竹富町,字小浜,24.340071,123.981267,2144.671929716963,3623470843,True
舮作簡易郵便局,青森県,深浦町,大字月屋,40.609581521316635,139.86868847848964,2146.0611671939296,6039763912,False
厚内郵便局,北海道,浦幌町,厚内２区,42.808392,143.813948,2147.9501942594725,6443167511,False
瓜生野簡易郵便局,高知県,本山町,七戸,33.800648,133.55686,2165.331310722635,5033546421,False
和木郵便局,新潟県,佐渡市,玉崎,38.167495,138.464883,2166.912358918433,5738230711,True
目名郵便局,北海道,蘭越町,目名町,42.76164976515402,140.46558806065025,2171.3994447131154,6440131713,False
銀鏡郵便局,宮崎県,西都市,大字銀鏡,32.265575,131.252528,2171.459100214082,4831321033,False
豊後大島郵便局,大分県,佐伯市,大字大島,32.966447,132.073626,2174.504594677255,4932305544,True
安家郵便局,岩手県,岩泉町,安家,39.986962,141.730866,2177.440961532772,5941758814,False
腹帯簡易郵便局,岩手県,宮古市,古田,39.60471998735313,141.76662279528986,2184.3984198703392,5941362132,False
木部郵便局,島根県,津和野町,中川,34.52491,131.722538,2188.585171573454,5131652744,False
星原郵便局,鹿児島県,中種子町,牧川,30.604518,130.950175,2188.7602809442574,4530772631,True
四本松簡易郵便局,島根県,津和野町,山下,34.51367420790431,131.7155982594394,2191.6747809141802,5131651731,False
相生郵便局,徳島県,那賀町,井ノ谷,33.834063,134.442302,2196.2629858058485,5034630512,False
大河内簡易郵便局,宮崎県,椎葉村,大河内野々首,32.365545,131.142175,2203.2937741159813,,False
双葉簡易郵便局,北海道,喜茂別町,字壮園,42.740526,141.047466,2219.545971518729,6441008344,False
上美幌郵便局,北海道,美幌町,字上町,43.787954,144.083875,2226.1744795996897,6544504641,False
曽郵便局,長崎県,対馬市,千尋藻,34.419015,129.364094,2226.76962284,5129520913,True
香深井郵便局,北海道,礼文町,大字香深村字カフカイ,45.33898061057544,141.0491040860412,2227.09502381478,6841000342,True
不土野簡易郵便局,宮崎県,椎葉村,下福良春山、滝,32.49364965256276,131.0728674969906,2228.5955048854707,,False
小屋瀬簡易郵便局,岩手県,葛巻町,葛巻,39.981958,141.40616,2229.9669235768793,5941737234,False
匹見下簡易郵便局,島根県,益田市,匹見町広瀬,34.585715,131.974292,2235.1497290692273,5131770724,False
津戸簡易郵便局,島根県,隠岐の島町,津戸,36.167558,133.240491,2238.7014668204356,5433210911,True
嘉年郵便局,山口県,山口市,阿東嘉年下,34.465725096677815,131.67280089698707,2240.841776118453,5131555344,False
北ノ川郵便局,高知県,四万十町,大正北ノ川,33.18722885855834,133.04470331811595,2241.2823962817156,4933602323,False
塘路郵便局,北海道,標茶町,字塘路,43.15003773921695,144.499053,2241.6972903039778,6444538922,False
青瀬郵便局,鹿児島県,薩摩川内市,下甑町青瀬,31.672818,129.725424,2243.297091247147,4729450831,True
江丹別郵便局,北海道,旭川市,江丹別町中央,43.890079,142.239801,2244.979893718416,6542616933,False
西阿木名郵便局,鹿児島県,天城町,大字西阿木名,27.751638,128.917288,2247.154065485549,4128570312,True
川登郵便局,高知県,四万十市,大川筋川登,33.03005,132.854108,2247.495662412522,4932463832,False
内城郵便局,鹿児島県,知名町,大字赤嶺,27.382143,128.605052,2247.894586646168,4128045834,True
生見簡易郵便局,高知県,東洋町,大字生見,33.524296,134.281515,2252.5115242746115,5034222243,False
北竜簡易郵便局,北海道,沼田町,字北竜,43.787591,141.908608,2253.3608004829057,6541574241,False
室戸椎名郵便局,高知県,室戸市,室津,33.32588,134.196001,2254.0831191765897,4934719521,False
岩屋郵便局,青森県,東通村,大字岩屋,41.38374,141.404178,2256.445191558104,6241036212,False
君谷郵便局,島根県,美郷町,京覧原,35.059974,132.506043,2256.8520854905732,,False
本泊郵便局,北海道,利尻富士町,鴛泊字富士岬,45.251299,141.190401,2257.02775380379,6741710511,True
道川簡易郵便局,島根県,益田市,匹見町道川,34.64233701919384,132.09059856847824,2258.523595367383,5132707711,False
天売郵便局,北海道,羽幌町,大字天売字和浦,44.425626,141.328074,2260.119917358688,6641521611,True
清川郵便局,北海道,中札内村,西戸蔦,42.744785,143.08603,2261.1055191343603,6443009624,False
渡川簡易郵便局,宮崎県,美郷町,大字上渡川,32.345707,131.269025,2262.6484964603655,4831421123,False
美生郵便局,北海道,芽室町,美生,42.865912,143.015595,2262.794956135866,6443203133,False
盃郵便局,北海道,泊村,大字興志内村,43.101746,140.460548,2263.275031507416,6440532622,False
上札内郵便局,北海道,中札内村,上札内,42.635552,143.092075,2263.5295308345217,6343706714,False
和井内郵便局,岩手県,宮古市,刈屋,39.67929868373114,141.71654791264305,2264.2602807587205,5941451732,False
増田郵便局,鹿児島県,中種子町,増田,30.554247,130.997979,2267.0683418482868,4530676942,True
西表大原郵便局,沖縄県,竹富町,字南風見仲,24.271831,123.881107,2267.9398563796135,3623372032,True
下赤簡易郵便局,宮崎県,延岡市,北川町川内名下赤,32.746712010463106,131.63011324641496,2272.077075054341,4931059032,False
大奈路郵便局,高知県,四万十町,大正大奈路,33.229614,132.981341,2275.131707691573,4932677841,False
府内簡易郵便局,高知県,香美市,白石,33.67382602201539,133.83412757623955,2280.953387586041,5033460643,False
大鳥簡易郵便局,山形県,鶴岡市,大鳥字松ヶ崎,38.468194,139.760543,2281.7372735574136,5739566022,False
三ツ木簡易郵便局,徳島県,美馬市,木屋平,33.96321666003784,134.21416723207474,2283.3746883495337,5034715731,False
河地簡易郵便局,鹿児島県,伊仙町,大字糸木名,27.733328282231568,128.92280330158871,2285.128508315463,4128477344,True
二神簡易郵便局,愛媛県,松山市,二神,33.9331,132.539265,2286.7838788399245,5032741333,True
杉沢簡易郵便局,秋田県,五城目町,馬場目,39.916095,140.241284,2287.3395458423047,5940619934,False
四浦簡易郵便局,鹿児島県,志布志市,田之浦,31.57668,131.178476,2290.5978909132655,4731219412,False
東豊永郵便局,高知県,大豊町,大滝落合,33.795271,133.785479,2293.006304474236,5033565224,False
琴郵便局,長崎県,対馬市,琴,34.55442,129.456837,2293.509428144791,5129636641,True
賀谷簡易郵便局,長崎県,対馬市,賀谷,34.369826,129.372344,2296.7684524124543,5129424924,True
礼受簡易郵便局,北海道,留萌市,礼受町,43.90519499073481,141.6112753194317,2300.752679890056,6541648842,False
猪野々簡易郵便局,高知県,香美市,永瀬,33.705463,133.855026,2303.1115356371583,5033464832,False
地頭所簡易郵便局,島根県,美郷町,地頭所,35.033313,132.506815,2304.74946232769,5232444021,False
木ノ子郵便局,北海道,上ノ国町,字小安在,41.7648,140.070125,2305.283745598146,6240501543,False
久寿軒簡易郵便局,高知県,大豊町,久寿軒,33.72307307374963,133.69840928943555,2307.221957555883,5033456544,False
別子郵便局,愛媛県,新居浜市,別子山,33.847056458041486,133.37880747717392,2308.0876315239725,5033631032,False
札前簡易郵便局,北海道,松前町,字赤神,41.468471,140.029921,2309.655414917447,6240106212,False
槇峰郵便局,宮崎県,延岡市,北方町槇峰未,32.627559,131.448141,2309.882340541726,,False
麓郷郵便局,北海道,富良野市,字麓郷市街地,43.301206,142.524278,2310.2640588756567,6442746122,False
上智恵文郵便局,北海道,名寄市,智恵文中央,44.43787676015712,142.40419469556636,2311.875934662237,6642532232,False
請戸郵便局（一時閉鎖）,福島県,浪江町,大字中浜,37.480554,141.038809,2312.0227666415362,,False
神和郵便局,愛媛県,松山市,元怒和,33.975506,132.540709,2312.1963957386333,5032747312,True
木屋平郵便局,徳島県,美馬市,木屋平,33.914604,134.175219,2312.715785192597,5034619433,False
湯ノ岱郵便局,北海道,上ノ国町,字湯ノ岱,41.750751,140.245362,2314.2743699095618,6240510921,False
森山簡易郵便局,高知県,仁淀川町,森山,33.543852,133.105953,2314.3996158199852,5033205814,False
夫沢簡易郵便局（一時閉鎖）,福島県,大熊町,大字夫沢字北原,37.422504,141.019089,2327.5964771153067,,False
大原郵便局,山口県,山口市,徳地野谷祖父,34.303554173528305,131.6858699386919,2328.7392085381557,5131356424,False
二本楠郵便局,長崎県,五島市,岐宿町中嶽,32.67333,128.730368,2331.878868439221,4928050834,True
戸賀郵便局,秋田県,男鹿市,戸賀戸賀字戸賀,39.961467,139.713339,2333.5190949306248,5939755713,False
矢井賀簡易郵便局,高知県,中土佐町,矢井賀,33.243451,133.246091,2347.9874524883803,4933619921,False
菊川簡易郵便局,愛媛県,愛南町,御荘菊川,32.990514,132.517891,2350.46392140437,4932348134,False
阿南小野簡易郵便局,徳島県,美波町,西の地,33.798623,134.589732,2351.677684757706,5034545733,False
双葉郵便局（一時閉鎖）,福島県,双葉町,大字新山,37.447501,141.008534,2355.273983971489,,False
目黒郵便局,愛媛県,松野町,大字目黒,33.162195,132.698342,2355.563773600234,4932559524,False
諸鈍郵便局,鹿児島県,瀬戸内町,大字花富,28.093041,129.325806,2357.4100804758546,4229121611,True
土佐清水上野簡易郵便局,高知県,土佐清水市,下益野下益野,32.81836280554761,132.89624115971586,2358.3458686091813,4932178121,False
我路簡易郵便局,北海道,美唄市,我路町３条,43.325001145447295,141.94243292829904,2360.6726553716617,6441779512,False
当目簡易郵便局,石川県,能登町,字当目,37.350555,137.006097,2363.578901242811,5637002012,False
竹敷郵便局,長崎県,対馬市,竹敷,34.300389,129.301157,2365.3409207832965,5129326411,True
飛島郵便局,山形県,酒田市,飛島字勝浦甲,39.19116,139.550262,2369.2577675912003,5839642433,True
船越郵便局,宮城県,石巻市,船越,38.532403,141.512048,2369.8763014093256,,False
熊町郵便局（一時閉鎖）,福島県,大熊町,大字熊字熊町,37.384175,141.008813,2372.4227003943206,,False
正弘郵便局,高知県,安田町,大字正弘,33.481134,134.000929,2372.4774789375033,5034107031,False
琵琶瀬郵便局,北海道,浜中町,琵琶瀬,43.058429,145.082987,2373.6071289311803,6445407621,False
久部簡易郵便局,大分県,豊後大野市,三重町中津留,32.90062967759667,131.54346329824597,2381.21022161577,4931248312,False
深瀬簡易郵便局,宮崎県,日南市,大字酒谷甲酒谷９区,31.63763056135924,131.2539016935927,2386.615361797252,4731326032,False
西之表安納郵便局,鹿児島県,西之表市,安納,30.729648,131.060883,2386.9336384612334,4631007442,True
富武士簡易郵便局,北海道,佐呂間町,字若里,44.095523,143.80458,2389.593604888277,6643161414,False
幾世橋郵便局（一時閉鎖）,福島県,浪江町,大字幾世橋,37.493608,141.014367,2396.6759083817306,,False
然別簡易郵便局（一時閉鎖）,北海道,仁木町,南町８丁目,43.125168,140.735192,2398.409163034055,6440555822,False
下直瀬簡易郵便局,愛媛県,久万高原町,相の峰,33.677976,132.984692,2399.256702338492,5032471824,False
薮川郵便局,岩手県,盛岡市,大字藪川字外山,39.783366,141.330074,2400.723339650975,5941524612,False
島間郵便局,鹿児島県,南種子町,島間,30.463249,130.863215,2403.4691355569203,4530565931,True
荷稲郵便局,高知県,黒潮町,荷稲,33.133546,133.122718,2410.006692304534,4933506922,False
二浦郵便局,熊本県,天草市,二浦町亀浦,32.276581,130.037167,2410.535809718437,4830303222,False
鰐浦郵便局,長崎県,対馬市,鰐浦,34.688658,129.442103,2412.7445866200896,5229032532,True
駒ケ岳郵便局,北海道,森町,字駒ケ岳,42.03773,140.611761,2413.1906409313747,6340044842,False
高屋簡易郵便局,石川県,珠洲市,高屋町,37.51909,137.239157,2421.5217095441812,5637212913,False
夜ノ森郵便局（一時閉鎖）,福島県,富岡町,桜一丁目,37.364981,140.997409,2423.45485961327,,False
大熊郵便局（一時閉鎖）,福島県,大熊町,大字下野上字大野,37.407227,140.979093,2424.4941718602927,,False
浜ノ浦郵便局,長崎県,新上五島町,続浜ノ浦郷,32.963687,129.025936,2433.0399652858646,4929305231,True
嘉渡簡易郵便局,鹿児島県,龍郷町,幾里,28.455198089652146,129.570218,2433.8417332668278,4229544541,True
大下簡易郵便局,愛媛県,今治市,関前大下,34.189613,132.923163,2434.7877116422387,5132272344,False
谷郵便局,島根県,飯南町,畑田,34.985152,132.677361,2438.808414925632,5232358411,False
箱石郵便局,岩手県,宮古市,箱石,39.615059,141.626997,2439.64778415144,5941353033,False
戸呂町簡易郵便局,岩手県,久慈市,山形町戸呂町,40.202241,141.592073,2442.2735011968975,6041244714,False
歯舞郵便局,北海道,根室市,歯舞４丁目,43.340362,145.751243,2443.5345221768034,6545060033,False
横谷郵便局,広島県,三次市,作木町大畠,34.924549,132.753216,2449.0995821128313,5232360034,False
富岡郵便局（一時閉鎖）,福島県,富岡町,本町１丁目,37.340911,141.007818,2449.2437758321307,,False
緋牛内郵便局,北海道,北見市,緋牛内,43.881775,143.999156,2449.4003106599766,6543675944,False
浪江郵便局（一時閉鎖）,福島県,浪江町,大字権現堂,37.493308,140.992504,2452.6474373677956,,False
浦川郵便局,新潟県,佐渡市,浦川,38.202075,138.487352,2462.0299382506055,5738234822,True
森脇簡易郵便局,広島県,庄原市,比和町森脇,35.02887354050219,132.99329510235506,2462.2217551922413,5232473914,False
野塚郵便局,北海道,積丹町,大字日司町,43.342486,140.457462,2465.2613881571046,6540031621,False
沼川郵便局,北海道,稚内市,大字声問村字沼川,45.25145695670675,141.84891,2467.157011243197,6741760722,False
日比原郵便局,高知県,いの町,清水,33.675873,133.336161,2467.605271049974,5033421622,False
大久郵便局,島根県,隠岐の島町,大久,36.250467,133.37164,2469.359774053409,5433320921,True
市棚簡易郵便局,宮崎県,延岡市,北川町川内名深瀬,32.728782683034055,131.71043140678873,2469.74689815949,4931057624,False
野上簡易郵便局,福島県,大熊町,大字野上字秋葉台,37.409171,140.958817,2472.2820699672393,,False
萩木間簡易郵便局（一時閉鎖）,山口県,萩市,大字山田,34.326315,131.36124,2474.510072412231,5131329822,False
出島簡易郵便局（一時閉鎖）,宮城県,女川町,出島字出島,38.458523,141.518161,2475.326808041873,,True
古田郵便局,鹿児島県,西之表市,古田,30.659791,131.003418,2475.6438105668612,4531709012,True
面河郵便局,愛媛県,久万高原町,渋草,33.68892,133.034604,2475.7103420966755,5033402242,False
青砂簡易郵便局,秋田県,男鹿市,戸賀加茂青砂,39.910248,139.729943,2476.640568332988,5939659812,False
安芸奈比賀簡易郵便局,高知県,安芸市,川北,33.527682,133.952435,2481.8290619705162,5033273613,False
阿部郵便局,徳島県,美波町,阿部,33.790076,134.639738,2482.602328105448,5034554133,False
清和緑川簡易郵便局,熊本県,山都町,大字緑川,32.632975638828604,131.09080038850118,2485.9993435344295,4831705734,False
伊是名郵便局,沖縄県,伊是名村,字仲田,26.92886,127.941484,2486.9601452954066,,True
古屋敷郵便局,熊本県,水上村,大字江代字古屋敷,32.376998,131.02264,2487.7595180306894,4831405122,False
徳之島尾母簡易郵便局,鹿児島県,徳之島町,尾母,27.716032,128.989584,2490.9846778565593,4128475933,True
川井郵便局,徳島県,美馬市,木屋平,33.932296,134.212158,2491.8981769849584,5034711644,False
魚梁瀬郵便局,高知県,馬路村,大字魚梁瀬丸山,33.615436,134.109623,2493.5321914659116,5034303844,False
高千郵便局,新潟県,佐渡市,後尾,38.167686,138.311007,2497.3590489408316,5738220422,True
上怒和簡易郵便局,愛媛県,松山市,上怒和,33.983955,132.556928,2498.654026191885,5032748421,True
後志港町簡易郵便局,北海道,寿都町,字磯谷町能津登,42.87610396710935,140.36883776792524,2503.2340431357097,6440225921,False
仙美里郵便局,北海道,本別町,仙美里元町,43.180574400262074,143.5897369133009,2506.158554987439,6443641731,False
虹別郵便局,北海道,標茶町,字虹別,43.466113486435596,144.67797676825424,2506.2806829606966,6544155433,False
富津内簡易郵便局,秋田県,五城目町,富津内中津又,39.947479,140.205452,2506.606740939341,5940713632,False
大堀郵便局（一時閉鎖）,福島県,浪江町,大字小野田,37.477775,140.955205,2511.516699404749,,False
四万川郵便局,高知県,檮原町,六丁,33.428809,132.87443,2511.525057504125,5032161924,False
宇宿郵便局,鹿児島県,奄美市,大字宇宿,28.44919,129.711433,2513.839594763876,4229553644,True
船廻簡易郵便局,長崎県,五島市,奈留町船廻,32.848505,128.941877,2514.487658249361,4928271534,True
平良郵便局,鹿児島県,薩摩川内市,上甑町平良,31.801561,129.840355,2514.96338553941,4729566711,True
竹富郵便局,沖縄県,竹富町,字竹富,24.329825,124.088012,2521.1534719639108,3624309731,True
嶽簡易郵便局,青森県,西目屋村,大字白沢,40.630179,140.268745,2522.0159571154873,6040725132,False
落浦郵便局,大分県,津久見市,大字四浦,33.068655,131.989743,2523.0971365672685,4931478911,False
高俣郵便局,山口県,萩市,大字高佐上,34.473221,131.611048,2527.831003052223,5131546844,False
館浜郵便局,北海道,松前町,字館浜,41.446807,140.047226,2528.5428049293914,6240103342,False
宗谷岬郵便局,北海道,稚内市,宗谷岬,45.516038,141.945076,2528.5608219154014,6841271543,False
白滝郵便局,北海道,遠軽町,白滝,43.882557,143.179333,2533.775098267186,6543615434,False
香北西川簡易郵便局,高知県,香美市,佐敷,33.625417,133.802837,2536.680993664958,5033365411,False
上桧木内郵便局,秋田県,仙北市,西木町上桧木内,39.815471,140.584744,2537.175690640256,5940547644,False
珸瑤瑁郵便局（一時閉鎖）,北海道,根室市,珸瑤瑁２丁目,43.364777,145.792488,2538.5025393340225,6545063334,False
折戸簡易郵便局,石川県,珠洲市,折戸町,37.52707838928605,137.2807442190503,2539.96620954709,5637223212,False
嫗岳郵便局,大分県,竹田市,大字中角,32.893044,131.357608,2540.683621130648,4931227821,False
竜郷郵便局,鹿児島県,龍郷町,龍郷,28.454233,129.605411,2542.358916448265,4229544832,True
魚島郵便局,愛媛県,上島町,春日,34.178531,133.322796,2544.5127414786893,5133221524,True
五島柏郵便局,長崎県,五島市,三井楽町柏,32.77789,128.667674,2545.5582802176045,4928153314,True
下士別簡易郵便局,北海道,士別市,下士別町,44.21032493331578,142.3946392208819,2547.0824538993015,6642235121,False
上美生郵便局,北海道,芽室町,上伏古,42.80639,142.958604,2553.3540636054395,6442176643,False
北山形簡易郵便局,岩手県,岩手町,大字江刈内,39.941367,141.329535,2555.3122830978723,5941722634,False
下泊簡易郵便局,愛媛県,西予市,三瓶町下泊,33.337332,132.388034,2557.1968164270115,5032030113,False
大股郵便局,岩手県,住田町,世田米字里古屋,39.143165,141.490638,2557.966958349602,5841537911,False
坪谷郵便局,宮崎県,日向市,坪谷市谷原,32.36357,131.445035,2560.423686380586,4831433541,False
宇和海郵便局,愛媛県,宇和島市,蒋渕,33.1958132439857,132.40694084094204,2561.0533032300364,4932633223,False
油木駅前簡易郵便局,広島県,庄原市,西城町油木,35.044329768046694,133.11959043678485,2565.770346761758,5233405923,False
柳野郵便局,高知県,仁淀川町,狩山,33.622127,133.240142,2566.0521422015127,5033314931,False
苅野郵便局（一時閉鎖）,福島県,浪江町,大字苅宿,37.505272,140.960204,2567.7473549607166,,False
美川郵便局,愛媛県,久万高原町,中黒岩,33.614037,132.97606,2568.775593934882,5032373831,False
大葛郵便局,秋田県,大館市,大葛,40.129417,140.667624,2569.292471854983,6040155332,False
蛯沢郵便局（一時閉鎖）,福島県,南相馬市,小高区蛯沢,37.533388,141.006867,2569.6345627486676,,False
森越簡易郵便局,北海道,知内町,字森越,41.62746995778128,140.43021265188784,2569.6539506206122,6240335414,False
田処簡易郵便局,愛媛県,大洲市,田処,33.601197,132.587844,2572.297155537458,5032342711,False
月布施郵便局,新潟県,佐渡市,月布施,38.029236,138.552742,2574.7003094706242,5738043431,True
高山有明簡易郵便局,鹿児島県,肝付町,波見,31.338386,131.066802,2576.4288949235643,4731000532,False
三谷簡易郵便局（一時閉鎖）,島根県,川本町,大字湯谷,35.009012082124215,132.44811000657893,2579.0495275055127,5232431522,False
澄川郵便局,島根県,益田市,匹見町澄川,34.598818,131.941623,2580.662464181761,5131771534,False
宇田郵便局,山口県,阿武町,大字宇田,34.566682,131.541524,2581.4389269631774,5131648312,False
岐宿川原郵便局,長崎県,五島市,岐宿町川原,32.735952,128.727823,2581.793122348768,4928058813,True
上仁頃簡易郵便局,北海道,北見市,上仁頃,43.874327,143.854449,2582.6591995001154,6543664834,False
庶野郵便局,北海道,えりも町,字庶野,42.045683,143.299096,2582.7499859112654,6343025324,False
三原郵便局,高知県,三原村,大字来栖野,32.908879,132.845285,2584.676215951744,4932269721,False
宮南簡易郵便局,熊本県,天草市,小宮地二本木,32.315517,130.171866,2584.896512587322,4830317343,False
芦萢簡易郵便局,青森県,鰺ヶ沢町,大字芦萢町,40.6913197558502,140.2273118369947,2586.068853870639,6140012833,False
茂無部簡易郵便局,北海道,森町,字石倉町,42.177432,140.451186,2586.217750651947,6340231613,False
湯川温泉簡易郵便局,岩手県,西和賀町,湯川,39.278588,140.772589,2586.7808946687724,5840763124,False
海川郵便局,徳島県,那賀町,成瀬,33.780375,134.255547,2590.646633891038,5034523032,False
宇津賀郵便局,山口県,長門市,油谷後畑,34.40469155948862,131.04876429601438,2594.9207074502733,5131408342,False
柳谷郵便局,愛媛県,久万高原町,柳井川,33.554213,133.005333,2595.286002914605,5033206032,False
大滝簡易郵便局,山形県,真室川町,大字大滝,38.96954,140.304644,2600.9913381491024,5840326414,False
仁頃郵便局,北海道,北見市,仁頃町,43.89827,143.898721,2605.4086215766533,6543677144,False
御崎簡易郵便局,長崎県,平戸市,御崎,33.43275860442614,129.42905721641876,2606.3471365866526,5029131434,False
日原左鐙郵便局,島根県,津和野町,左鐙一の谷,34.49370538029711,131.8722044028414,2610.5047916381513,5131569922,False
猿辺簡易郵便局,青森県,三戸町,大字蛇沼,40.379173621156895,141.1706279713196,2610.55171677404,6041415341,False
宿野部郵便局,青森県,むつ市,川内町,41.175049,140.931819,2611.4140946613857,6140671421,False
北浜郵便局,北海道,網走市,字北浜,43.955468,144.356873,2616.228631423489,6544724841,False
東大塚簡易郵便局,熊本県,人吉市,西大塚町,32.1325408093906,130.71639574056064,2619.3151720978217,4830155734,False
河内簡易郵便局,愛媛県,内子町,河内,33.59932656859498,132.6392469426392,2619.5028772681635,5032351133,False
吾郷郵便局,島根県,美郷町,吾郷,35.041311,132.558899,2622.33819237556,5232444443,False
黒沢郵便局,島根県,浜田市,三隅町下古和,34.739919,131.994342,2622.590980560352,5231078943,False
小野津郵便局,鹿児島県,喜界町,大字小野津,28.36515,130.003225,2623.3568795833417,4230403034,True
小川簡易郵便局,和歌山県,古座川町,小川,33.60355,135.766572,2623.9458226574093,5035362114,False
川越郵便局,島根県,江津市,桜江町川越,34.955264,132.42058,2625.626505188219,5232334341,False
貝沢簡易郵便局,岩手県,西和賀町,大字川舟,39.55416890983138,140.84535352381286,2625.68227664402,5940266741,False
岩首簡易郵便局,新潟県,佐渡市,岩首,37.943245,138.502278,2626.8339925652153,5638743011,True
殿居郵便局,山口県,下関市,豊田町大字荒木,34.257613,131.029784,2628.2762514364176,5131300234,False
御波簡易郵便局,島根県,海士町,大字御波,36.07248386051056,133.09746476858317,2629.9621760361943,5433008742,True
桜谷郵便局,徳島県,那賀町,小浜,33.80637199985153,134.3728898696224,2632.446614949388,5034526944,False
出合簡易郵便局,徳島県,三好市,松尾,33.959564,133.799443,2632.5795263371397,5033765322,False
幌郵便局,北海道,石狩市,浜益区群別,43.649714,141.353513,2633.8197308773747,6541327834,False
越木簡易郵便局,島根県,浜田市,旭町来尾十通り,34.843664,132.354673,2635.798732115673,5232221812,False
小歩危郵便局,徳島県,三好市,西宇,33.91396851919759,133.75764983778595,2639.6319950272486,5033669041,False
土井浦簡易郵便局,長崎県,新上五島町,若松郷,32.867807,129.008108,2640.1470672481255,4929204021,True
更進郵便局,北海道,深川市,字更進,43.687749,142.174568,2644.063026012222,6542412342,False
黒岩郵便局,北海道,八雲町,黒岩,42.367796,140.289464,2645.375593090078,6340424311,False
平郡郵便局,山口県,柳井市,平郡,33.780531,132.258039,2645.6672044260295,5032523041,True
本浦簡易郵便局,鹿児島県,長島町,諸浦,32.239913,130.175312,2646.754127765696,4830218433,False
地家室郵便局,山口県,周防大島町,大字地家室,33.86994,132.346029,2650.069082880264,5032624723,False
因尾郵便局,大分県,佐伯市,大字堂ノ間,32.926746,131.711688,2651.2838986266484,4931351622,False
大津郵便局,北海道,豊頃町,大津幸町,42.687095,143.649388,2651.883488330557,6443052124,False
越知面郵便局,高知県,檮原町,下本村,33.432699,132.945368,2652.83717098141,5032171543,False
高川郵便局,愛媛県,西予市,城川町高野子,33.36365,132.797498,2653.4196832458465,5032063342,False
南大夕張郵便局,北海道,夕張市,南部若美町,43.021086,142.08,2653.743589036718,6442402632,False
鷹栖北成簡易郵便局,北海道,鷹栖町,北成２０線,43.90758015062169,142.33234989435553,2656.917546307349,6542628643,False
安芸下山簡易郵便局,高知県,安田町,大字唐浜,33.458942,133.945965,2657.5398186242646,5033175521,False
松尾郵便局,宮崎県,椎葉村,松尾岩屋戸,32.489551,131.243605,2659.5436252533477,4831518932,False
鵜苫郵便局,北海道,浦河町,字東幌別,42.133766,142.87338,2659.5607111916056,6342166922,False
備後落合簡易郵便局,広島県,庄原市,西城町高尾,35.00235,133.149007,2660.506042839694,5233410124,False
種川郵便局,北海道,今金町,字稲穂,42.42053658245958,140.068056015656,2661.1774981478857,6340500514,False
日野谷郵便局,徳島県,那賀町,大久保,33.790867,134.443385,2661.6541427277575,5034534534,False
畑迫郵便局,島根県,津和野町,部栄,34.483502,131.742716,2664.1131793916547,5131558912,False
佐田簡易郵便局,和歌山県,古座川町,佐田,33.59320669756018,135.69763827509536,2664.301566494159,5035351522,False
美濃郵便局,島根県,益田市,美濃地町,34.627843,131.727979,2667.641368680753,5131755813,False
嘉鉄簡易郵便局,鹿児島県,瀬戸内町,大字古仁屋,28.138465,129.338607,2669.364953835583,4229126731,True
小国郵便局,岩手県,宮古市,小国,39.517294,141.670331,2672.929528619082,5941252321,False
鈴川郵便局,北海道,喜茂別町,字鈴川,42.76741,140.973748,2673.3699754723375,6440172722,False
奥浦郵便局,長崎県,五島市,奥浦町,32.742704,128.824179,2674.3677124208034,4928069522,True
布部郵便局,北海道,富良野市,字布部一,43.29276300254017,142.4022652358887,2678.182490524545,6442735211,False
上嘉鉄郵便局,鹿児島県,喜界町,大字上嘉鉄,28.2816,129.943483,2678.300932047834,4229373534,True
江島簡易郵便局（一時閉鎖）,長崎県,西海市,江島,33.003914,129.349357,2678.416035343569,4929420724,True
蘭留簡易郵便局,北海道,比布町,北７線,43.924632,142.475542,2680.112090119996,6542730833,False
大岐簡易郵便局,高知県,土佐清水市,大岐,32.82164,132.9456466518879,2682.411712561362,4932178541,False
木沢郵便局,徳島県,那賀町,坂州,33.830246,134.299544,2682.5249057455235,5034529342,False
脇川郵便局,新潟県,村上市,寒川,38.445870952885564,139.4872192203661,2682.790309339748,5739533842,False
浜中郵便局,北海道,浜中町,浜中桜北,43.156672,145.101837,2682.983962879062,6445508833,False
葛川簡易郵便局,青森県,平川市,大字小国,40.52633,140.719361,2684.6105412925453,6040653721,False
小茂田郵便局,長崎県,対馬市,小茂田,34.231644,129.195305,2686.120629941111,5129217543,True
九日市簡易郵便局,島根県,美郷町,九日市,35.049456,132.67001,2687.268812402829,5232455343,False
大谷簡易郵便局,愛媛県,大洲市,肱川町大谷,33.434496,132.664924,2689.7598384576995,5032152311,False
落合郵便局,徳島県,三好市,,33.88019,133.935379,2690.2626219807444,5033675442,False
小黒部簡易郵便局,北海道,江差町,字朝日町,41.92925020222599,140.20378014866512,2691.95398461378,6240711632,False
姫ノ井郵便局,高知県,大月町,大字姫ノ井,32.801045,132.735208,2692.021351782875,4932156822,False
新城郵便局,北海道,芦別市,豊岡町,43.611966,142.202677,2693.7596883620713,6542313613,False
大平簡易郵便局,青森県,外ヶ浜町,字蟹田大平沢辺,41.065141,140.553148,2694.248988505584,6140447434,False
知夫郵便局,島根県,知夫村,,36.009876,133.041513,2695.668026791616,5433001312,True
喜多灘簡易郵便局,愛媛県,大洲市,長浜町今坊,33.6285447796047,132.51572841889734,2695.749103435072,5032345114,False
満穂郵便局,愛媛県,内子町,石畳,33.62415,132.635577,2701.9018048634907,5032354044,False
長谷川郵便局,大分県,豊後大野市,緒方町小原,32.898795,131.440405,2702.277100965297,4931237533,False
長谷郵便局,島根県,江津市,桜江町長谷,34.924626,132.275872,2705.606231397175,5232320233,False
石見布施郵便局,島根県,邑南町,布施,34.93813,132.57418,2706.211585114353,5232342542,False
岩戸寺簡易郵便局,大分県,国東市,岩戸寺,33.619757,131.625513,2709.047199434879,5031354013,False
東天城郵便局,鹿児島県,徳之島町,山港川,27.866298,128.957421,2710.9775828251227,4128673643,True
秋名郵便局,鹿児島県,龍郷町,幾里,28.446108,129.5574,2713.1385731545456,4229543441,True
東川郵便局,高知県,香美市,佐敷,33.59972,133.806409,2717.1637016203576,,False
佐仁簡易郵便局,鹿児島県,奄美市,大字佐仁,28.514143,129.669827,2717.379772508737,4229651341,True
滝沢簡易郵便局,青森県,五戸町,大字倉石又重,40.506052,141.195618,2721.1160028185745,6041610541,False
讃岐広島郵便局,香川県,丸亀市,広島町江の浦,34.365425,133.716551,2732.696771613079,5133453734,True
米原簡易郵便局,北海道,旭川市,東旭川町米原,43.746024,142.574223,2734.997552079022,6542449542,False
釜谷簡易郵便局,北海道,木古内町,字御宮野,41.71134881154253,140.5369275501907,2736.3725531491277,6240445224,False
阿瀬津簡易郵便局,長崎県,新上五島町,鯛ノ浦阿瀬津郷,32.95275349256039,129.1108143702137,2736.858589549978,4929304824,True
小船越郵便局,長崎県,対馬市,小船越,34.339997,129.363068,2736.953185850347,5129420933,True
浮島簡易郵便局,山口県,周防大島町,大字浮島,33.94584552154078,132.34972946678104,2740.1202241544197,5032723742,True
知来別郵便局,北海道,猿払村,知来別,45.380126,142.088276,2740.14456348872,6842005731,False
五家荘郵便局,熊本県,八代市,泉町椎原,32.49098611681526,130.9062280583476,2741.2856071685183,4830578234,False
中須田郵便局,北海道,上ノ国町,字中須田,41.782717,140.151007,2741.580712665802,6240513233,False
上岩川郵便局,秋田県,三種町,上岩川,40.054262,140.150997,2748.2765763301254,6040016231,False
兄畑簡易郵便局,岩手県,八幡平市,舘市地区,40.11582,140.882763,2748.3902544170796,6040173043,False
大久保郵便局,高知県,大豊町,大久保,33.825125,133.787795,2748.5794723714343,5033569311,False
北上郵便局,宮城県,石巻市,十三浜,38.576285,141.450386,2753.7031289361644,,False
箸別簡易郵便局,北海道,増毛町,箸別,43.8593409927786,141.54929685462434,2756.126406387853,6541643322,False
ゆだ高原簡易郵便局,岩手県,西和賀町,中村,39.299793,140.735979,2759.2851312318726,5840755844,False
一重簡易郵便局,長崎県,対馬市,一重,34.530449,129.447505,2761.0693467911487,,True
井野郵便局,島根県,浜田市,三隅町芦谷,34.786606,132.010226,2764.0310689600688,5232104024,False
西春別郵便局,北海道,別海町,西春別宮園町,43.391882,144.808521,2767.3067926018775,6544067421,False
泉簡易郵便局,長崎県,対馬市,泉,34.67813,129.471251,2771.84970471527,5229031723,True
佐本郵便局,和歌山県,すさみ町,佐本中,33.588959,135.624465,2774.9959761990062,5035340942,False
小川郵便局,山口県,萩市,大字中小川,34.590847,131.677178,2777.2442419673457,5131750433,False
蕨岡郵便局,高知県,四万十市,蕨岡藤,33.038301,132.939072,2778.490646379104,4932474531,False
静狩郵便局,北海道,長万部町,字静狩,42.586265,140.465075,2778.966108381257,6340730713,False
関郵便局,岩手県,久慈市,山形町霜畑,40.093613,141.595317,2779.5945745275035,6041141721,False
阿毘縁簡易郵便局,鳥取県,日南町,下阿毘縁寺の前上,35.211056,133.201087,2779.5988211506974,5233615613,False
馬込簡易郵便局,鹿児島県,南大隅町,佐多伊座敷,31.085519,130.709251,2782.515911392331,4630550623,False
蔵川簡易郵便局,愛媛県,大洲市,蔵川,33.460714,132.614929,2784.438662497718,5032145913,False
上春別郵便局,北海道,別海町,上春別南町,43.430408,144.897261,2790.691535531841,6544171142,False
八鉾郵便局,広島県,庄原市,西城町小鳥原,35.029986,133.161977,2791.283712802158,,False
東中郵便局,北海道,上富良野町,東中,43.408776,142.485567,2792.015447453342,6542039822,False
江刈郵便局,岩手県,葛巻町,江刈,39.971755,141.505476,2792.325631385745,5941746032,False
水上郵便局,島根県,大田市,水上町福原,35.094665,132.460213,2793.2313822333595,5232531624,False
横川簡易郵便局,大分県,佐伯市,大字横川,32.884029,131.740632,2793.95464428101,4931256912,False
都郵便局,北海道,赤井川村,字都,43.050707,140.82544,2794.34414976794,6440466611,False
大石簡易郵便局,岩手県,西和賀町,耳取,39.296649,140.835323,2794.6761513628453,5840765642,False
日本国麓郵便局,新潟県,村上市,小俣,38.511283,139.600895,2795.36602279023,5739641813,False
大田山口簡易郵便局,島根県,大田市,山口町山口,35.175743,132.633121,2796.4645525336255,5232651021,False
玉之浦郵便局,長崎県,五島市,玉之浦町玉之浦,32.634644,128.617741,2798.969855392117,4828746912,True
喜木津簡易郵便局,愛媛県,八幡浜市,喜木津,33.52682434759993,132.38737465188785,2801.024280068144,5032233022,False
熊野簡易郵便局,鹿児島県,中種子町,油久,30.47016290291676,130.95895074690839,2801.0911832609263,4530576623,True
神和住簡易郵便局,石川県,能登町,字神和住,37.342081,137.06408,2804.345370074002,5637001511,False
中辺簡易郵便局,山口県,美祢市,秋芳町嘉万,34.31325817397274,131.2742065201945,2807.152682573208,5131327142,False
大洲柳沢郵便局,愛媛県,大洲市,柳沢,33.580556,132.599283,2810.4392884091617,5032249742,False
山城谷簡易郵便局,徳島県,三好市,八千坊,33.934536,133.726144,2811.5617536366967,5033752811,False
両石簡易郵便局（一時閉鎖）,岩手県,釜石市,新浜町１丁目,39.309429,141.88968,2812.6156962735868,,False
宮地簡易郵便局,石川県,能登町,字宮地,37.301099,137.025114,2814.137715348278,5537706211,False
大洲成能簡易郵便局,愛媛県,大洲市,成能,33.488017577752075,132.66413647914754,2818.0358977059377,5032158331,False
森吉簡易郵便局,秋田県,北秋田市,根森田,40.040531,140.432094,2819.719478528114,6040034443,False
松葉川郵便局,高知県,四万十町,七里,33.260474,133.120519,2824.9523592343844,4933701923,False
大柿簡易郵便局（一時閉鎖）,福島県,浪江町,大字川房,37.531189,140.870819,2825.171825179087,,False
川又郵便局,徳島県,神山町,上分,33.958155,134.283457,2825.4299303354264,5034724243,False
入間郵便局,島根県,雲南市,掛合町入間,35.149744,132.783816,2825.6116923737354,5232567243,False
木細工簡易郵便局,岩手県,奥州市,米里,39.1976417186588,141.34872450717006,2826.219798429366,5841623742,False
江石簡易郵便局,鹿児島県,薩摩川内市,上甑町江石,31.82258920934941,129.8709874348112,2831.342448892735,4729568941,True
田代島簡易郵便局,宮城県,石巻市,田代浜字内山,38.292429,141.424288,2837.003068504431,5741335322,True
布施郵便局,島根県,隠岐の島町,卯敷,36.294357,133.357232,2837.668223364887,5433325823,True
祥栄簡易郵便局（一時閉鎖）,北海道,芽室町,祥栄,42.966014,143.042726,2838.32763608845,6443305334,False
汐吹簡易郵便局,北海道,上ノ国町,字汐吹,41.741195,140.052584,2838.4751830977193,6240408433,False
福賀郵便局,山口県,阿武町,大字福田下,34.516577,131.598298,2839.8584854983733,5131641744,False
豊浜郵便局,北海道,乙部町,字花磯,42.046795,140.084278,2841.077636666002,6340005641,False
むつみ郵便局,山口県,萩市,大字吉部上,34.438279,131.579413,2842.4185968330185,5131542632,False
清部郵便局,北海道,松前町,字清部,41.524547,140.003615,2842.900860761288,6240202034,False
波多郵便局,島根県,雲南市,掛合町波多,35.142522,132.733766,2843.0497796325885,5232557821,False
赤松郵便局,徳島県,美波町,赤松字野田,33.771681,134.500186,2844.115503213195,5034542031,False
稲田簡易郵便局,北海道,深川市,字稲田,43.661298,141.994315,2849.352484205247,6541379923,False
御祓簡易郵便局（一時閉鎖）,愛媛県,内子町,北表,33.524775,132.699906,2849.784615763759,5032252544,False
谷地頭簡易郵便局,青森県,三沢市,谷地頭２丁目,40.7848512003693,141.3652318839626,2851.293600219675,6141124911,False
八幡郵便局,広島県,北広島町,西八幡原,34.711647,132.177275,2852.2187321820325,5232015413,False
直根郵便局,秋田県,由利本荘市,鳥海町中直根字前ノ沢,39.149238,140.172151,2852.489933772671,5840517344,False
豊永郵便局,高知県,大豊町,大田口,33.786109,133.71828,2854.4583199403633,5033554714,False
豊似郵便局,北海道,広尾町,字豊似東通,42.394281,143.304125,2855.947788100212,6343427414,False
鵜戸郵便局,宮崎県,日南市,大字宮浦鵜戸,31.645337,131.455482,2856.1387320141193,4731337614,False
入口郵便局,青森県,東通村,大字野牛,41.354853,141.334185,2856.6254271324146,6241022641,False
東通村役場内簡易郵便局,青森県,東通村,大字砂子又,41.277914,141.329466,2858.604292800623,,False
下ノ土居郵便局,高知県,大豊町,東土居,33.795573,133.758695,2863.9635460031823,5033565023,False
石見別府簡易郵便局,島根県,美郷町,別府,35.100247,132.529095,2864.116592367255,5232542212,False
蛎崎簡易郵便局,青森県,むつ市,脇野沢字鹿間平,41.167735,140.899838,2866.03326248512,6140670122,False
赤玉郵便局,新潟県,佐渡市,赤玉,37.993462,138.532662,2866.1260628821833,5638749221,True
大隅大原簡易郵便局,鹿児島県,錦江町,田代麓,31.169624,130.881185,2871.2220238103237,4630670014,False
下橋波簡易郵便局,島根県,出雲市,佐田町下橋波,35.1932955983676,132.6716310303251,2873.0794346450184,5232653321,False
西之表住吉郵便局,鹿児島県,西之表市,住吉,30.667678,130.947562,2874.8828532927064,4630070522,True
栄浜郵便局,北海道,乙部町,字鳥山,41.999051,140.122694,2878.1132203965503,6240709944,False
狼煙郵便局,石川県,珠洲市,狼煙町,37.525482,137.325326,2881.2030655181106,5637223611,False
篠生郵便局,山口県,山口市,阿東篠目,34.30467545625554,131.57767235982078,2881.9383837374085,5131346631,False
男鹿温泉簡易郵便局,秋田県,男鹿市,北浦湯本字草木原,39.97436,139.7417,2882.7537909846856,5939756934,False
境野郵便局,北海道,置戸町,境野,43.715645,143.661719,2883.0794357893215,6543455244,False
新牧簡易郵便局,鹿児島県,南九州市,上別府,31.316968762655367,130.50606940481504,2884.5340748302415,4630748012,False
深須郵便局,山口県,岩国市,錦町深川字小山西,34.317577,131.991076,2885.5278069131837,5131378912,False
三浦郵便局,愛媛県,宇和島市,三浦西,33.165476,132.483865,2886.309634868194,4932539843,False
母島簡易郵便局,東京都,小笠原村,母島字元地,26.640098,142.160847,2886.3451322873048,3942716244,True
横別府郵便局,鹿児島県,南大隅町,根占横別府,31.184129,130.807873,2886.8251636625105,4630662421,False
碧水郵便局,北海道,北竜町,字碧水,43.76783,141.880811,2887.034969477824,6541572012,False
上田所郵便局,島根県,邑南町,上田所,34.827612,132.489885,2888.7360761787945,5232139913,False
渡嘉敷郵便局,沖縄県,渡嘉敷村,字渡嘉敷,26.196913,127.364527,2888.882835559116,3927223931,True
大歩危郵便局,徳島県,三好市,下名,33.875846,133.765435,2896.568261113195,5033665111,False
岩手中村簡易郵便局,岩手県,葛巻町,江刈,40.00593361713591,141.47879575424295,2900.1263987747393,6041030832,False
軍川簡易郵便局,北海道,七飯町,字軍川,41.97960000691169,140.70893576858313,2904.8363429999163,6240757641,False
鷲崎郵便局,新潟県,佐渡市,鷲崎,38.318672,138.516206,2907.564052850878,5738348112,True
本川郵便局,高知県,いの町,脇ノ山,33.772945,133.337799,2907.7177182027326,5033522733,False
栄浦簡易郵便局（一時閉鎖）,北海道,北見市,字岐阜,44.128922,143.971941,2910.2748181571437,6643175724,False
厚床郵便局,北海道,根室市,厚床２丁目,43.230028,145.252265,2910.334479598297,6445627031,False
野花南郵便局,北海道,芦別市,野花南町,43.473818,142.260677,2912.291772918738,6542126044,False
竜森簡易郵便局,秋田県,北秋田市,七日市,40.110245,140.462366,2913.499528760126,,False
島牧郵便局,北海道,島牧村,字永豊町,42.701054,140.062314,2914.1227859747582,6440004422,False
早町郵便局,鹿児島県,喜界町,大字塩道,28.337569,130.000671,2918.7966477759237,4230400031,True
名取簡易郵便局,愛媛県,伊方町,名取,33.382266,132.150028,2919.067036371694,5032015233,False
未渡簡易郵便局,広島県,庄原市,東城町帝釈未渡,34.86038842805399,133.18287475358508,2919.5397896280638,5233213423,False
宇検郵便局,鹿児島県,宇検村,大字須古,28.280303,129.294162,2920.2970012290625,4229323341,True
津呂簡易郵便局,高知県,土佐清水市,津呂,32.76390098930742,133.0103750143402,2921.0724380952493,4933101042,False
勇足郵便局,北海道,本別町,勇足元町,43.090348,143.522815,2922.675003829869,6443540144,False
下大野郵便局,愛媛県,鬼北町,大字広見,33.30668,132.721893,2926.748997403424,4932756743,False
南金沢郵便局,青森県,鰺ヶ沢町,大字南金沢町,40.721554,140.183191,2926.943875903571,6140016441,False
静浦郵便局,北海道,松前町,字赤神,41.482441,140.023393,2928.419069967484,6240107144,False
井田郵便局,島根県,大田市,温泉津町井田,35.044772,132.365174,2928.454224902463,5232425913,False
及位郵便局,山形県,真室川町,大字及位,38.978984,140.361584,2931.309104249332,5840327824,False
下高野山郵便局,広島県,庄原市,高野町中門田,35.025197,132.885299,2931.549277613082,5232473022,False
獅子島郵便局,鹿児島県,長島町,獅子島,32.277966,130.219141,2932.0454459818648,4830313723,True
加領郷簡易郵便局,高知県,奈半利町,甲加領郷,33.382361,134.036559,2934.6035573842237,5034005244,False
福連木簡易郵便局,熊本県,天草市,福連木,32.417978,130.073923,2937.9741843591823,4830500522,False
阿南伊島郵便局,徳島県,阿南市,椿町,33.842702,134.807377,2939.98300124561,5034661421,True
嘉喜尾簡易郵便局,愛媛県,西予市,城川町魚成,33.378422,132.734473,2940.6868972978814,5032055824,False
貝吹簡易郵便局,愛媛県,西予市,野村町大西,33.397498,132.674654,2941.813862795653,5032057342,False
沖家室郵便局,山口県,周防大島町,大字沖家室島,33.85597431455901,132.36058979726357,2942.2114910559408,5032622842,False
宇目郵便局,大分県,佐伯市,大字大平,32.843351,131.716559,2946.8314530623884,4931251712,False
玉川郵便局,山形県,小国町,大字片貝,38.031018,139.681071,2948.070624088988,5739053432,False
瀬上郵便局,鹿児島県,薩摩川内市,上甑町小島,31.860194,129.863351,2951.1105340605372,4729663911,True
日浦簡易郵便局,北海道,函館市,吉畑町,41.733888,141.051141,2952.903833105888,6241408411,False
日和郵便局,島根県,邑南町,日和,34.91749,132.387001,2954.2144876690686,5232330022,False
床潭郵便局,北海道,厚岸町,床潭,42.999683,144.869339,2954.9061082581206,6444369943,False
石河内簡易郵便局,宮崎県,木城町,大字川原,32.21931816169484,131.41448972358887,2956.431493692073,4831236313,False
溪筋郵便局,愛媛県,西予市,野村町旭,33.401592,132.588493,2958.1483806004157,5032048711,False
志戸子簡易郵便局,鹿児島県,屋久島町,志戸子,30.448408,130.518683,2959.652580760351,4530543134,True
都川郵便局,島根県,浜田市,旭町都川都川３,34.836803,132.313425,2961.637422955402,5232220513,False
安全寺簡易郵便局,秋田県,男鹿市,北浦安全寺,39.933024,139.782715,2965.324961037848,5939761243,False
上帯広郵便局,北海道,芽室町,栄,42.799866,143.067151,2966.418004865897,6443105534,False
美和郵便局,広島県,北広島町,移原,34.74648,132.361614,2968.9569481397643,5232029842,False
飯崎簡易郵便局（一時閉鎖）,福島県,南相馬市,小高区飯崎,37.554713,140.960481,2969.13014530408,,False
浜小清水郵便局,北海道,小清水町,字浜小清水,43.931487819575445,144.45377960886725,2969.1406706238727,6544731634,False
弥富郵便局,山口県,萩市,大字弥富下,34.548879,131.640126,2970.4976503033863,5131655133,False
別苅郵便局,北海道,増毛町,南暑寒町６丁目,43.834737,141.494614,2972.121133977882,6541630921,False
長沢郵便局,高知県,いの町,長沢,33.726456,133.306246,2976.3107868898555,5033427412,False
青沢簡易郵便局,山形県,酒田市,北青沢字塚沢,38.967589,140.048557,2978.4946149419925,5840306322,False
稗造簡易郵便局,石川県,志賀町,今田,37.167946137747556,136.78235939626248,2978.6373987311854,5536660221,False
神居古潭簡易郵便局,北海道,旭川市,神居町神居古潭,43.723733,142.185759,2982.8202237947517,6542416444,False
小瀬田郵便局,鹿児島県,屋久島町,小瀬田,30.397749,130.641399,2987.3490074970255,4530457132,True
大保木郵便局,愛媛県,西条市,中奥,33.837107,133.14687,2989.6905111891124,5033610123,False
鵜養簡易郵便局,秋田県,秋田市,河辺岩見字鵜養,39.705288,140.366562,2994.357389453264,5940424932,False
札弦郵便局,北海道,清里町,札弦町,43.785104,144.532558,2996.7807275086375,6544544221,False
上美唄簡易郵便局,北海道,美唄市,上美唄町２区,43.34009,141.780041,2998.461604948744,6541060234,False
黒崎簡易郵便局,青森県,深浦町,大字黒崎,40.516015,139.950168,3001.028453241521,6039671633,False
大杉穴内簡易郵便局,高知県,大豊町,穴内二区,33.780283,133.697764,3001.6093657834344,5033553542,False
市木郵便局,宮崎県,串間市,大字市木古都,31.464628,131.346189,3001.8578661455326,4731125743,False
富郷郵便局,愛媛県,四国中央市,富郷町豊坂,33.913749,133.510868,3001.8704826027283,5033649042,False
豊茂郵便局,愛媛県,大洲市,豊茂,33.56316555077332,132.4715163324562,3002.8224475239826,5032237741,False
父二峰郵便局,愛媛県,久万高原町,露峰,33.615897,132.898008,3003.276913403481,5032373144,False
多度志郵便局,北海道,深川市,多度志,43.809354,142.023894,3007.8269029222274,6542507122,False
大沢簡易郵便局,北海道,松前町,字朝日,41.42762466521802,140.1354261303776,3008.689349980494,6240111024,False
馬背畑簡易郵便局,大分県,豊後大野市,緒方町平石,32.933848,131.476734,3012.0528610287984,4931332811,False
錦宇佐簡易郵便局,山口県,岩国市,錦町宇佐字入江谷,34.424884,132.058203,3012.089712452943,5132500443,False
嵐郵便局,愛媛県,宇和島市,津島町嵐,33.077143,132.487614,3013.751025518618,4932439913,False
大滝郵便局,北海道,伊達市,本町,42.673034,141.08144,3013.77199769673,6441000643,False
旭和田郵便局,島根県,浜田市,旭町和田上和田,34.857689,132.291677,3015.239755604214,,False
大窪簡易郵便局,宮崎県,日南市,大字大窪仮屋,31.577422,131.303133,3021.4198925770324,4731229414,False
東郵便局,沖縄県,東村,字平良,26.631081,128.154231,3022.7170552356733,,False
神恵内郵便局,北海道,神恵内村,大字神恵内村,43.140023,140.436621,3023.923033728813,,False
志多賀郵便局,長崎県,対馬市,志多賀,34.479787,129.395758,3024.4996945164335,5129537141,True
羽後荒川郵便局,秋田県,大仙市,協和稲沢字水沢,39.612802,140.428504,3029.652428811726,5940333432,False
五味沢簡易郵便局,山形県,小国町,大字小股,38.15282498435538,139.7802393787662,3029.8303705250464,5739168214,False
大国郵便局,島根県,大田市,仁摩町大国,35.12907758382925,132.42328198697555,3035.8678254745314,5232535324,False
明治簡易郵便局,大分県,国東市,明治,33.525137,131.605854,3037.909732626937,5031243812,False
小高郵便局,福島県,南相馬市,小高区上町１丁目,37.565097,140.986253,3039.627806803891,,False
北田野浦郵便局,新潟県,佐渡市,高千高下,38.201077,138.347315,3039.940416462315,5738224722,True
汐首簡易郵便局,北海道,函館市,汐首町,41.715081,140.953139,3041.188864127086,6240475634,False
上八川郵便局,高知県,いの町,上八川,33.645779,133.339521,3041.5314024390595,5033327713,False
地吉郵便局,山口県,下関市,豊田町大字大河内,34.23299165029603,131.11869720273646,3041.830682631212,5131207934,False
多田郵便局,新潟県,佐渡市,多田,37.913887,138.483976,3043.3301915826823,5638639841,True
活汲簡易郵便局,北海道,津別町,字岩富,43.744626,144.053395,3044.469412235464,6544409414,False
都賀行郵便局,島根県,美郷町,都賀行,34.992539,132.608589,3047.913644198844,5232349821,False
田之浦郵便局,鹿児島県,志布志市,田之浦,31.557448,131.134647,3051.458711579334,4731216044,False
田瀬簡易郵便局,岩手県,花巻市,田瀬,39.315333,141.309582,3055.2353335427156,5841727444,False
川上簡易郵便局,鹿児島県,肝付町,後田,31.280638,130.949471,3055.303584826191,4630773542,False
安国郵便局,北海道,遠軽町,生田原安国,43.994249,143.537467,3056.8195639577216,6543749224,False
宮園簡易郵便局,熊本県,五木村,甲,32.439706,130.857333,3057.110905213044,4830562843,False
大川郵便局（一時閉鎖）,宮城県,石巻市,釜谷,38.547121,141.431222,3058.479712876282,,False
坂石郵便局,愛媛県,西予市,野村町坂石,33.412028,132.717391,3066.095870503853,5032059714,False
荻浜郵便局（一時閉鎖）,宮城県,石巻市,荻浜,38.377975,141.44817,3068.5608675139774,,False
松笠簡易郵便局,島根県,雲南市,掛合町松笠,35.217282406011066,132.79065283962632,3074.3678346780775,5232666312,False
堂山簡易郵便局,鹿児島県,姶良市,北山,31.858933,130.602022,3077.5117345882522,4730643811,False
蒲野沢簡易郵便局,青森県,東通村,大字蒲野沢,41.306523,141.33141,3077.684197989111,6141726643,False
入下郵便局,宮崎県,美郷町,大字入下,32.496622,131.486378,3080.34111241631,4831539842,False
西保郵便局,石川県,輪島市,赤崎町,37.376087,136.799637,3080.8323410487615,5636065322,False
中田簡易郵便局,山形県,金山町,大字中田下中田,38.92123322628495,140.33331197131957,3084.0439098673096,5840320641,False
石見大屋簡易郵便局,島根県,大田市,大屋町大国,35.153869,132.453695,3085.445333915405,5232538614,False
仙法志郵便局,北海道,利尻町,仙法志字元村,45.109515,141.217292,3087.048196829093,6741513712,True
有戸簡易郵便局,青森県,野辺地町,字下道,40.91852797088287,141.19094450519646,3087.8085851942633,6141310512,False
上山簡易郵便局,愛媛県,四国中央市,新宮町上山,33.957247,133.669971,3089.8215038620388,5033754343,False
南股簡易郵便局,岩手県,一関市,厳美町字入道,39.003724,141.005513,3089.84215107097,,False
大棚簡易郵便局,鹿児島県,大和村,大字大金久,28.355970640069557,129.35837438850118,3089.8765957663895,4229422841,True
養老簡易郵便局,高知県,土佐清水市,養老,32.783759,132.929889,3091.3267294238753,4932174412,False
秋郵便局,山口県,周防大島町,大字秋,33.877919,132.25202,3094.0563923809345,5032625013,False
戸倉郵便局（一時閉鎖）,宮城県,南三陸町,戸倉字転石,38.647943,141.437329,3096.455740908308,,False
雄勝郵便局,宮城県,石巻市,小島,38.51324367698671,141.49927240020983,3097.104162111048,,False
脇元簡易郵便局,青森県,五所川原市,脇元赤川,41.089021,140.321776,3099.728552341818,6140520541,False
青山簡易郵便局,大分県,佐伯市,大字長谷,32.884939,131.871317,3100.5457699612066,4931266921,False
津和地簡易郵便局,愛媛県,松山市,津和地,33.981176,132.512155,3102.234534751701,5032747042,True
雪沢簡易郵便局,秋田県,大館市,雪沢,40.291619,140.689558,3102.2842076437514,6040354533,False
川辺上山田簡易郵便局,鹿児島県,南九州市,上山田,31.33650470738365,130.33678667925247,3103.824333605097,4730020624,False
三河内簡易郵便局,広島県,庄原市,比和町三河内,34.978072,133.028798,3106.099672058097,5233307214,False
神龍湖簡易郵便局,広島県,神石高原町,永野字神竜,34.84407512206542,133.22306717076657,3106.6688289422964,5233211724,False
発足郵便局,北海道,共和町,梨野舞納,43.016203,140.567657,3117.994847643479,6440441534,False
波野郵便局,熊本県,阿蘇市,波野大字滝水,32.933091,131.232176,3120.962546366217,4931311843,False
櫃田郵便局,広島県,三次市,君田町茂田,34.924958,132.831617,3125.560791040301,5232360643,False
上香々地郵便局,大分県,豊後高田市,上香々地,33.628483,131.540666,3125.86404225805,5031345314,False
濁川郵便局,北海道,滝上町,濁川中央,44.191493,143.110152,3125.9096570729675,6643202844,False
明治簡易郵便局,高知県,越知町,南片岡,33.572566,133.285665,3131.480146571159,5033228242,False
小川郵便局,高知県,いの町,下八川,33.6272531466121,133.30091842047105,3136.479965930255,5033325413,False
下波郵便局,愛媛県,宇和島市,下波,33.167577,132.459505,3137.9524281632303,4932630622,False
小本郵便局,岩手県,岩泉町,小本,39.846984,141.970016,3138.6829469241266,,False
豊頃郵便局,北海道,豊頃町,茂岩新和町,42.802465,143.505918,3138.866866034069,6443146014,False
村所郵便局,宮崎県,西米良村,大字村所,32.225604,131.154981,3140.045274573038,4831217212,False
小田郵便局,岩手県,葛巻町,田部,40.07990287073988,141.41389217339818,3142.359181732591,6041039331,False
延岡熊野江郵便局,宮崎県,延岡市,北浦町古江阿蘇,32.676162,131.783134,3143.6835726022778,4931061221,False
三都郵便局,香川県,小豆島町,蒲野,34.439427,134.250724,3144.6545699739913,5134522031,True
小泊郵便局,山口県,周防大島町,大字小泊,33.915519,132.388832,3144.9729793344986,5032639133,False
油久簡易郵便局,鹿児島県,中種子町,油久,30.499678,130.959282,3146.2489907261993,4530579643,True
佐多郵便局,鹿児島県,南大隅町,佐多伊座敷,31.0941,130.691036,3146.485709949899,4630551514,False
白瀬郵便局,新潟県,佐渡市,北五十里,38.139498,138.448163,3147.018717921535,5738136542,True
胆振苫鵡簡易郵便局,北海道,占冠村,字上トマム,43.04152114989589,142.65535611603738,3151.4888904956474,6442454234,False
木田郵便局,島根県,浜田市,旭町木田木田２の下,34.887408,132.282816,3152.4335663679267,5232226223,False
泊野簡易郵便局,鹿児島県,さつま町,泊野,31.942353,130.371097,3154.0802216710167,4730723921,False
猪山簡易郵便局,広島県,安芸太田町,大字猪山,34.67373645614447,132.30755617339818,3155.8519799298433,,False
猿橋郵便局,岩手県,西和賀町,大字太田,39.441182,140.753035,3157.9765230046205,5940162033,False
津島郵便局（一時閉鎖）,福島県,浪江町,大字下津島,37.559428,140.754386,3158.923963486188,,False
荒川簡易郵便局,山形県,小国町,大字長沢,38.15965,139.750064,3160.141896089815,5739169011,False
種平簡易郵便局,秋田県,秋田市,雄和種沢,39.574855,140.230138,3160.3179903868368,5940218834,False
大福寺簡易郵便局,石川県,志賀町,大福寺,37.19122823847213,136.71745491264303,3162.1543887713465,5536652734,False
船戸郵便局,高知県,津野町,船戸,33.414776,133.091524,3165.3534020588418,5033009734,False
風間浦郵便局,青森県,風間浦村,大字下風呂字湯ノ上,41.468445,141.091419,3166.26206467114,6241106712,False
礼文郵便局,北海道,豊浦町,字礼文華,42.580661,140.593275,3169.450111892176,6340649732,False
浦上郵便局,石川県,輪島市,門前町浅生田,37.307331,136.79746,3170.7937849575615,5536766344,False
予子林郵便局,愛媛県,大洲市,肱川町予子林,33.434747,132.705392,3171.1524460417854,5032152612,False
上勝郵便局,徳島県,上勝町,大字福原,33.888593,134.402213,3173.4159775730527,5034636231,False
西祖谷郵便局,徳島県,三好市,,33.891800080041996,133.81733766754385,3174.006910388603,5033667512,False
檜山石崎郵便局,北海道,上ノ国町,字石崎,41.706638,140.025937,3179.4518105215666,6240404233,False
種里簡易郵便局,青森県,鰺ヶ沢町,大字種里町,40.711314483908836,140.1722584957904,3182.84322102002,6140015324,False
倉内簡易郵便局,青森県,六ヶ所村,大字倉内,40.886288,141.268653,3185.2644692234253,6141226114,False
大岸郵便局,北海道,豊浦町,字豊泉,42.589919,140.645146,3187.051649691699,6340750143,False
伊佐領簡易郵便局,山形県,小国町,大字伊佐領,38.05040202116872,139.82499774187642,3188.4925401762985,5739066522,False
志々郵便局,島根県,飯南町,八神,35.109192,132.696411,3188.5620803965885,5232553521,False
阿須那郵便局,島根県,邑南町,阿須那,34.86965,132.617681,3189.8164192507097,5232244914,False
三原郵便局,島根県,川本町,大字南佐木,34.997981,132.414969,3192.632662384064,5232339333,False
狩宿簡易郵便局,鹿児島県,さつま町,求名,31.968921,130.545459,3193.3067165978787,4730746323,False
鎌井田簡易郵便局,高知県,越知町,浅尾,33.569578,133.254807,3193.3673828648734,5033228014,False
水津郵便局,新潟県,佐渡市,水津,38.07218,138.570573,3193.4809217787088,5738048541,True
頼城郵便局,北海道,芦別市,頼城町,43.452179,142.160023,3193.8413205361067,6542114224,False
菅簡易郵便局,広島県,庄原市,東城町菅,34.93807538987088,133.23162498302827,3194.5798358418115,5233312841,False
下八川簡易郵便局,高知県,いの町,下八川,33.609158,133.297775,3195.14075049167,5033323322,False
印賀郵便局,鳥取県,日南町,印賀中横見,35.239215,133.279321,3196.2068751416045,5233628232,False
十勝高島郵便局,北海道,池田町,字近牛,43.023092,143.457978,3197.3074019284763,6443432643,False
日南福栄郵便局,鳥取県,日南町,福塚宮田,35.11498328038033,133.30064255216436,3199.126935913214,5233523433,False
野島簡易郵便局（一時閉鎖）,山口県,防府市,大字野島野島西,33.94236,131.693529,3199.4890802163072,5031753512,True
沢木郵便局,北海道,雄武町,新沢木,44.517731,143.061858,3202.837794251502,6643602422,False
大網郵便局,山形県,鶴岡市,大網字興屋,38.592905,139.896084,3206.0732144558174,5739771121,False
湯ノ岱簡易郵便局,秋田県,湯沢市,秋ノ宮,38.961491,140.529902,3206.0907029924356,5840345214,False
片浦郵便局,鹿児島県,南さつま市,片浦,31.419972,130.178261,3210.1463973649643,4730110414,True
喜瀬簡易郵便局,鹿児島県,奄美市,大字喜瀬,28.422384,129.65477,3213.182405329494,4229550232,True
根笠簡易郵便局,山口県,岩国市,美川町根笠字山之内,34.19831776060688,131.99377915872904,3215.2740539067604,5131273943,False
影野簡易郵便局,高知県,四万十町,下呉地,33.276223,133.172624,3216.194118109343,4933713322,False
二川郵便局,島根県,益田市,美都町宇津川,34.688953,132.026423,3219.0027360619542,5232002231,False
大家郵便局,島根県,大田市,大代町大家,35.033198,132.410079,3219.637591875913,5232433244,False
西平郡簡易郵便局,山口県,柳井市,平郡,33.80208152535403,132.2019000436785,3221.758567076437,5032516611,True
白山郵便局,大分県,豊後大野市,清川町伏野,32.933128,131.530564,3222.0254419026182,4931341234,False
横畠簡易郵便局,高知県,越知町,横畠,33.565661,133.228004,3222.643941714876,5033217833,False
上刑部簡易郵便局,岡山県,新見市,大佐上刑部落合，定藤,35.11314824207276,133.56058686410137,3222.9766213471166,5233543442,False
早日渡簡易郵便局,宮崎県,延岡市,北方町早日渡巳,32.595555,131.492375,3223.31486199572,,False
美又簡易郵便局（一時閉鎖）,島根県,浜田市,旭町丸原後谷,34.894648,132.238182,3223.9316336038805,5232217913,False
江津波積郵便局,島根県,江津市,波積町本郷,35.03481,132.329948,3225.5370868382424,5232424612,False
両子郵便局,大分県,国東市,富清,33.521997,131.629445,3226.293615921462,5031252032,False
雄鹿原郵便局,広島県,北広島町,大元,34.728245,132.250407,3227.3638557177214,5232027013,False
碇石簡易郵便局,熊本県,天草市,碇石２番区,32.363348,130.150003,3228.4639251215085,4830413231,False
阿三簡易郵便局,鹿児島県,伊仙町,大字阿三,27.686375093212565,128.9283824915141,3231.174611254978,4128472414,True
中士別郵便局,北海道,士別市,東山町,44.174499,142.433542,3235.5631855655306,6642230443,False
乙原簡易郵便局,島根県,美郷町,吾郷,35.02926380119483,132.545812426392,3237.0617610667855,5232443341,False
川鳥郵便局,広島県,庄原市,東城町菅,34.953433,133.210821,3237.4274102430704,5233314624,False
井無田簡易郵便局,熊本県,山都町,大字井無田,32.732663,131.102079,3237.5268611408037,4931007833,False
草部郵便局,熊本県,高森町,大字草部,32.791535,131.213876,3237.608725533901,4931114733,False
三尾川郵便局,和歌山県,古座川町,三尾川,33.555359,135.68319,3240.110115504175,5035256441,False
ぶどう簡易郵便局,新潟県,村上市,蒲萄,38.389349,139.554542,3242.2417703322044,5739446432,False
新郷郵便局,岡山県,新見市,神郷高瀬野原わし尾,35.089872,133.367541,3247.8142263391355,5233520934,False
千原簡易郵便局,岡山県,新見市,坂本,35.051782018869,133.45763582594392,3248.7836821808824,5233436621,False
葛尾郵便局（一時閉鎖）,福島県,葛尾村,大字落合字関下,37.501934,140.763276,3249.0714185141287,,False
久佐簡易郵便局（一時閉鎖）,島根県,浜田市,金城町久佐,34.859492,132.208639,3249.736461958702,5232213621,False
湯里郵便局,島根県,大田市,温泉津町湯里,35.107534,132.376447,3252.433654750429,5232532033,False
中津川郵便局,山形県,飯豊町,大字下屋地,37.919924,139.875559,3252.606240690389,5639770013,False
志和郵便局,高知県,四万十町,志和,33.230896,133.248215,3254.303007949642,4933617942,False
平井簡易郵便局,和歌山県,古座川町,平井,33.642072,135.689716,3254.682675549357,5035357511,False
神野郵便局,石川県,能登町,字藤ノ瀬上藤ノ瀬,37.319167,137.088274,3255.0135056177337,,False
大宜味郵便局,沖縄県,大宜味村,字大宜味,26.702153,128.117839,3261.918456904888,4028004914,False
田代簡易郵便局,山口県,下関市,豊田町大字今出,34.228486,131.165253,3262.374932814494,,False
馬瀬簡易郵便局,高知県,大豊町,戸手野,33.696508,133.690475,3267.811829920728,5033453531,False
小宮簡易郵便局（一時閉鎖）,福島県,飯舘村,小宮字曲田,37.660807,140.772436,3270.647320657925,,False
泉郵便局,愛媛県,鬼北町,大字小西野々,33.277878,132.720005,3271.267091004303,4932753723,False
宮砥郵便局,大分県,竹田市,大字次倉,32.894237,131.329388,3271.5032826585793,4931227614,False
坂井郵便局,鹿児島県,中種子町,坂井,30.47989,130.939015,3271.5779197950574,4530577531,True
豊頃駅前郵便局,北海道,豊頃町,豊頃佐々田町,42.817047,143.537803,3272.142449668564,6443148311,False
深耶馬溪簡易郵便局,大分県,中津市,耶馬渓町深耶馬,33.373549,131.196762,3273.256251398181,5031014543,False
蛇浦簡易郵便局,青森県,風間浦村,大字蛇浦字石上,41.505938,140.968098,3274.7503225589576,6240270732,False
簗川郵便局,岩手県,盛岡市,簗川第５地割,39.66719148871665,141.30131563754767,3275.9408845370076,5941420411,False
御蔵島郵便局,東京都,御蔵島村,御蔵島村,33.896532,139.591655,3278.0898198049686,5039647732,True
池島郵便局,長崎県,長崎市,池島町,32.883865,129.599574,3278.1133893298497,,True
上緒方郵便局,大分県,豊後大野市,緒方町徳田,32.924653,131.431433,3278.2667203461624,4931330443,False
紫福郵便局,山口県,萩市,大字紫福,34.460248,131.528723,3279.03777668337,5131545212,False
本寺郵便局,岩手県,一関市,厳美町字岡山,38.974715,140.940335,3280.4351739712893,5840376533,False
大東久野郵便局,島根県,雲南市,大東町上久野,35.2674,133.024037,3285.8569109707764,5233702122,False
末吉郵便局,東京都,八丈町,末吉,33.082724,139.852684,3286.898845391117,4939469833,True
帝釈郵便局,広島県,神石高原町,相渡字野方,34.869004,133.199368,3287.0498494750987,5233214524,False
祖式郵便局,島根県,大田市,祖式町,35.066735,132.452854,3287.54463104157,5232438611,False
鶉郵便局,北海道,厚沢部町,鶉町,41.934761,140.320651,3289.6005479240603,6240722521,False
仙道郵便局,秋田県,羽後町,中仙道,39.163963,140.31714,3291.59371239046,5840529532,False
犬田布郵便局,鹿児島県,伊仙町,大字木之香,27.71271,128.907435,3292.673007068634,4128475241,True
柳川簡易郵便局,山形県,大江町,大字沢口,38.369323,140.05552,3293.298791854944,5740404414,False
鵠巣郵便局,石川県,輪島市,惣領町,37.404848,136.956643,3293.700721206917,5636078641,False
陸奥上郷郵便局,青森県,田子町,大字石亀,40.305241,141.099245,3294.271724657943,6041306742,False
歌笛郵便局,北海道,新ひだか町,字歌笛,42.271493,142.686524,3294.6657778467174,6342352442,False
高根郵便局,山口県,岩国市,錦町宇佐郷字宇佐郷中,34.375403,132.02285,3299.5591052239283,5132405122,False
吹越簡易郵便局,青森県,横浜町,字吹越,41.025964826474386,141.24638871056445,3299.634211237711,6141413921,False
三崎郵便局,石川県,珠洲市,三崎町,37.489237,137.341521,3302.184800046725,5637128732,False
高岡口簡易郵便局,鹿児島県,曽於市,末吉町南之郷,31.624357,131.125757,3302.2911001403104,4731314033,False
小阪簡易郵便局,和歌山県,那智勝浦町,大字小阪,33.659016,135.87545,3302.304345003808,,False
亀浦簡易郵便局（一時閉鎖）,熊本県,天草市,二浦町亀浦,32.275693904682015,130.02946334811213,3304.054132606965,4830303212,False
久万二名簡易郵便局,愛媛県,久万高原町,二名,33.6394530106481,132.85529433377195,3305.5639800161366,,False
三坂簡易郵便局,広島県,庄原市,西城町三坂,35.04841467325113,133.19267213103547,3305.5746149515276,5233415534,False
開盛郵便局,北海道,遠軽町,学田５丁目,44.097114,143.533515,3305.6772307365886,6643141241,False
中島粟井簡易郵便局,愛媛県,松山市,中島粟井,33.993929,132.640115,3306.0350512773157,5032759113,True
三波簡易郵便局,石川県,能登町,字波並,37.285266,137.112289,3306.3004846853473,5537704822,False
柏島郵便局,高知県,大月町,大字柏島,32.772209,132.628554,3308.2052295072885,4932152032,False
泉沢郵便局,北海道,木古内町,字泉沢,41.700264,140.509344,3309.836826344958,6240444021,False
富山郵便局,高知県,四万十市,富山大用,33.101623,132.962542,3312.543313185806,4932572711,False
五島小串簡易郵便局,長崎県,新上五島町,小串郷,33.04895532901564,129.10032059288233,3314.509942532193,4929405833,True
波田郵便局,島根県,益田市,波田町,34.635712,131.938219,3314.5532428988486,5131776513,False
晩生内郵便局,北海道,浦臼町,字晩生内第２,43.400337,141.777591,3320.602296621162,6541068211,False
ニセコ元町簡易郵便局,北海道,ニセコ町,字元町,42.79674305626695,140.70942785462432,3321.524356539356,6440155642,False
平谷郵便局,徳島県,那賀町,御所谷,33.793178,134.302959,3321.8974835735407,5034525411,False
上来原簡易郵便局,島根県,浜田市,金城町上来原,34.8385925532713,132.16543491330094,3323.005276476424,5232210331,False
湯瀬郵便局,秋田県,鹿角市,八幡平,40.122201,140.83983,3325.887490520418,6040164731,False
永野金山郵便局,鹿児島県,さつま町,永野,31.9204,130.609095,3326.550930292085,4730740823,False
川端郵便局,北海道,栗山町,字円山,42.916368,141.894604,3327.198190983198,6441279143,False
繁藤郵便局,高知県,香美市,繁藤駅前町,33.675316,133.676047,3335.7751896226937,5033451411,False
高見島郵便局,香川県,多度津町,高見,34.310093,133.681597,3339.626681568358,5133357421,True
伊香牛郵便局,北海道,当麻町,伊香牛,43.87673,142.523636,3341.064016659823,6542645122,False
赤坂田郵便局,岩手県,八幡平市,畑地区,40.049714,141.003431,3341.777150009327,6041005034,False
土佐清水布郵便局,高知県,土佐清水市,布,32.86857,132.983738,3342.792979502052,4932274821,False
江津川平郵便局,島根県,江津市,川平町南川上,34.996285,132.284286,3343.0866533289695,5232329241,False
大井沢郵便局,山形県,西川町,大字月岡,38.391957,139.994079,3345.2059328490923,5739477921,False
粟島郵便局,香川県,三豊市,詫間町粟島,34.269277,133.633735,3346.8135424206207,5133352023,True
西山郵便局,岡山県,高梁市,備中町西山六日，二五砂,34.857556,133.354603,3347.3652438504073,5233222834,False
津留郵便局,熊本県,高森町,大字野尻,32.829408,131.263368,3348.358321883946,4931129131,False
小倉簡易郵便局,新潟県,佐渡市,長谷,37.966518,138.426729,3348.4547564797463,5638735433,True
角井簡易郵便局,島根県,飯南町,角井,35.133502,132.668518,3348.5573505400394,5232556312,False
芸北郵便局,広島県,北広島町,奥中原,34.727453,132.278627,3353.046134241636,5232027214,False
池田簡易郵便局,石川県,輪島市,門前町池田,37.256288999308744,136.72405900000007,3353.935864898659,5536750744,False
山田簡易郵便局,秋田県,男鹿市,男鹿中山町字深田,39.94471222202258,139.81952701434022,3354.8572711938773,5939763523,False
上宮守簡易郵便局,岩手県,遠野市,字上宮守１地割,39.367417,141.397483,3354.903688203849,5941034122,False
日光簡易郵便局,鳥取県,伯耆町,大滝,35.33235628631441,133.49825488396263,3355.471693509918,5233739944,False
立串郵便局,長崎県,新上五島町,立串郷,33.061179,129.104899,3358.1698759078818,4929407814,True
西川郵便局,和歌山県,古座川町,成川,33.637406,135.709187,3359.199983271924,5035356623,False
二川郵便局,岡山県,真庭市,粟谷向立石,35.222338,133.670641,3359.8878182520048,5233656341,False
北湯沢簡易郵便局,北海道,伊達市,北湯沢温泉町,42.620857,141.023086,3359.917442476866,6341704142,False
相文簡易郵便局,岡山県,新見市,千屋花見,35.14313861264386,133.42887546283376,3360.230505267637,5233537412,False
三宅島郵便局,東京都,三宅村,神着,34.12157424280815,139.52513691626143,3362.509206523104,5139144231,True
坊津久志郵便局,鹿児島県,南さつま市,久志,31.309229,130.225954,3364.8261000145912,4630717811,False
本郷簡易郵便局,石川県,輪島市,門前町谷口,37.28779,136.812256,3365.6982374638574,5536764442,False
豊田郵便局,北海道,旭川市,東旭川町米原,43.757299,142.543641,3368.9765413149744,6542540334,False
万年簡易郵便局,北海道,音更町,字万年,43.016704,143.130966,3369.8258395010844,6443412012,False
次年子簡易郵便局,山形県,大石田町,大字次年子,38.598471,140.290494,3370.3890470660394,5740721333,False
三川郵便局,和歌山県,田辺市,合川,33.689117213387085,135.5682746518879,3373.4489619953206,5035442532,False
三瀬川簡易郵便局,山口県,岩国市,周東町三瀬川東郷,34.151238842759604,131.97418507334575,3373.4615061410045,5131178722,False
元紋別簡易郵便局,北海道,紋別市,海洋公園,44.32234529554161,143.37743826075513,3374.910974950718,6643338031,False
恒吉郵便局,鹿児島県,曽於市,大隅町恒吉,31.584302,130.909611,3376.663812827394,4730370222,False
松原簡易郵便局,広島県,安芸太田町,大字松原,34.659071,132.244408,3380.685510953746,5132719921,False
水の谷簡易郵便局,鹿児島県,志布志市,山重,31.534668,130.934445,3380.803620766376,4730274422,False
田代郵便局,秋田県,羽後町,田代,39.20529531929919,140.31219807301676,3383.409078023804,5840624442,False
川内宮司簡易郵便局,鹿児島県,薩摩川内市,湯田町,31.906281,130.239236,3384.0895983584833,4730618933,False
串郵便局,山口県,山口市,徳地鯖河内安養地１区,34.195676704601176,131.734696,3384.639457437284,5131253824,False
千原簡易郵便局,島根県,美郷町,熊見,35.056366,132.642806,3385.883225736637,5232456134,False
狙半内簡易郵便局,秋田県,横手市,増田町狙半内字中村,39.153251,140.628277,3386.0437108772517,5840558014,False
黒島郵便局,長崎県,佐世保市,黒島町,33.143958,129.529419,3387.0762494502555,4929547214,True
仕七川郵便局,愛媛県,久万高原町,七鳥,33.635454,133.004691,3388.7433412894056,5033306014,False
日東簡易郵便局,北海道,美唄市,日東町栄町,43.38561058312581,141.8856274856019,3390.1307374818393,6541076024,False
鴨居瀬郵便局,長崎県,対馬市,鴨居瀬,34.335553,129.3839,3391.5325822811537,5129430023,True
白馬山頂簡易郵便局,長野県,白馬村,大字北城八方,36.752534,137.753253,3395.1088002627907,,False
櫃石簡易郵便局,香川県,坂出市,櫃石,34.422813,133.806799,3395.300040424588,5133560441,False
川舟郵便局,岩手県,西和賀町,大字猿橋,39.481161,140.80041,3398.583619541348,5940167431,False
戸井郵便局,北海道,函館市,泊町,41.718221,141.007441,3400.094950925025,6241406021,False
飯館郵便局（一時閉鎖）,福島県,飯舘村,草野字大師堂,37.694136,140.756048,3404.2342850074324,,False
名野川郵便局,高知県,仁淀川町,名野川,33.558061,133.132313,3404.4083803257827,5033216043,False
白糸郵便局,熊本県,山都町,大字津留,32.638587,130.98476,3405.9380962050523,4830776842,False
男鹿中郵便局,秋田県,男鹿市,男鹿中滝川字藤巻台,39.935825,139.836526,3406.3837185611014,5939762624,False
大山寺郵便局,鳥取県,大山町,大山,35.393037,133.53013,3406.763423579154,5333047212,False
栗橋郵便局,岩手県,釜石市,橋野町,39.359802,141.767649,3410.3777259966637,5941063112,False
金砂簡易郵便局,愛媛県,四国中央市,金砂町平野山,33.928124,133.523333,3410.6308797654788,5033741124,False
淀川郵便局,秋田県,大仙市,協和下淀川字馬場,39.558082,140.260743,3411.4463950473164,5940226044,False
立花迫簡易郵便局,鹿児島県,志布志市,帖,31.514815,131.138814,3412.5371735052795,4731211133,False
朝原簡易郵便局,島根県,出雲市,佐田町朝原,35.246753681576536,132.7579589419813,3412.5746272886704,5232669041,False
南京極郵便局,北海道,京極町,字更進,42.829761,140.893196,3415.368330328851,6440179132,False
貫気別郵便局,北海道,平取町,字貫気別,42.672632,142.262671,3416.1266086914115,6442020131,False
寄田簡易郵便局,鹿児島県,薩摩川内市,寄田町,31.808848,130.186327,3417.960135370523,4730517422,False
平取二風谷簡易郵便局,北海道,平取町,字二風谷,42.635554,142.159371,3418.2967663370314,6342716223,False
遊子郵便局,愛媛県,宇和島市,遊子,33.198379,132.456393,3419.5438900310583,4932633643,False
吉尾郵便局,熊本県,芦北町,吉尾,32.328886,130.587497,3421.044514853384,,False
朝倉郵便局,島根県,吉賀町,朝倉,34.36832,131.89347,3422.7657443736225,5131474112,False
伊屋松郵便局,鹿児島県,曽於市,大隅町荒谷,31.563805,130.961192,3425.655317373371,4730277642,False
田野畑郵便局,岩手県,田野畑村,羅賀,39.930861,141.891409,3428.264786502334,5941771132,False
大倉簡易郵便局,福島県,飯舘村,大倉字松ケ平,37.732555,140.807867,3433.899091653906,,False
川上郵便局,山口県,萩市,川上,34.355119,131.46176,3438.4519572806394,5131432642,False
見明戸簡易郵便局,岡山県,真庭市,見明戸４番組,35.180478,133.676038,3438.82116432037,5233651431,False
三宅島伊ヶ谷郵便局,東京都,三宅村,伊ヶ谷,34.100323,139.492905,3439.4232924252738,5139132912,True
千屋郵便局,岡山県,新見市,千屋,35.10429211152209,133.43773931943178,3441.2419583115584,5233532531,False
花ノ木簡易郵便局,鹿児島県,南大隅町,根占川北,31.221533,130.811882,3442.1448998071646,4630666442,False
平井賀郵便局（一時閉鎖）,岩手県,田野畑村,羅賀,39.933821,141.937278,3445.492152584129,5941772422,False
菅尾簡易郵便局,熊本県,山都町,大字菅尾,32.712931,131.147273,3445.9579178820763,4931015142,False
布沢簡易郵便局,福島県,只見町,大字布沢字仲平,37.3404,139.479191,3449.220282002746,5639030834,False
宇莫別簡易郵便局,北海道,美瑛町,字大三,43.614277,142.480183,3451.00070985321,6542333832,False
福浦郵便局,愛媛県,愛南町,福浦,32.921133,132.498645,3453.697567337278,4932330942,False
喜念簡易郵便局,鹿児島県,伊仙町,大字喜念,27.686454,128.993148,3457.2380219192514,4128472914,True
三瓶郵便局,島根県,大田市,三瓶町（池田）池田,35.145382,132.584617,3457.896575419768,5232547624,False
攝待簡易郵便局,岩手県,宮古市,田老,39.810084,141.96164,3460.278320073574,5941577622,False
熊毛郵便局,大分県,国東市,岐部,33.666316,131.626022,3463.4618993839354,5031359033,False
参川郵便局,愛媛県,内子町,本川,33.574044,132.827634,3468.4159031428594,5032268633,False
野田生郵便局,北海道,八雲町,東野,42.218397,140.37894,3469.1273550226206,6340236012,False
白符簡易郵便局,北海道,福島町,字日向,41.465198,140.249096,3472.1460578769065,6240115944,False
温泉郵便局,島根県,雲南市,木次町平田,35.212906,132.936241,3473.8460980020436,5232675442,False
塩沢簡易郵便局（一時閉鎖）,福島県,只見町,大字塩沢,37.39489214147368,139.35732229075134,3478.0389061591104,5639027823,False
二条郵便局,島根県,益田市,上黒谷町,34.601622,131.729442,3478.512793524201,5131752812,False
阿蘇野簡易郵便局,大分県,由布市,大字阿蘇野,33.130382,131.347269,3484.781888063877,4931525742,False
矢作郵便局,岩手県,陸前高田市,矢作町字馬越,39.032068,141.531749,3485.702491558091,5841443243,False
八幡簡易郵便局,島根県,出雲市,佐田町反辺,35.22371082489225,132.72324498565976,3487.9449973031915,5232656744,False
浜益郵便局,北海道,石狩市,浜益区浜益,43.601204,141.384238,3490.8788435500614,6541332021,False
矢田簡易郵便局,大分県,豊後大野市,大野町矢田,32.994287,131.51373,3492.1788586099656,4931349113,False
馬島簡易郵便局（一時閉鎖）,山口県,周南市,大字大津島,33.989439,131.722609,3492.3219943007534,5031758742,True
桜樹郵便局,愛媛県,西条市,丹原町湯谷口,33.842901,133.00706,3499.0732135958588,5033601021,False
飯曾郵便局（一時閉鎖）,福島県,飯舘村,飯樋字町,37.661361,140.723274,3499.3488100299833,,False
現和郵便局,鹿児島県,西之表市,現和,30.695928,131.058218,3499.505946517825,4631003441,True
小泊簡易郵便局,石川県,珠洲市,蛸島町,37.450897,137.359601,3499.7252936810573,5637124822,False
加唐島簡易郵便局,佐賀県,唐津市,鎮西町加唐島,33.588251,129.860771,3501.9556511228957,5029360842,True
引谷簡易郵便局,山口県,山口市,徳地引谷夏焼中,34.21365842275889,131.60847214090379,3502.3392675166,5131245841,False
東鷹栖十線郵便局,北海道,旭川市,東鷹栖十一線２２号,43.890311,142.416796,3503.9951987588183,6542636334,False
小滝郵便局,新潟県,糸魚川市,大字岩木,36.93846,137.851156,3507.5960795909778,5537362831,False
大原浜郵便局（一時閉鎖）,宮城県,石巻市,大原浜,38.332426,141.475114,3508.4389966433623,5741339833,False
松川簡易郵便局,島根県,江津市,松川町市村,35.001452,132.281397,3509.6887804214257,5232420221,False
曽々木簡易郵便局,石川県,輪島市,町野町曽々木皆戸,37.453184,137.073715,3511.2504941014113,5637104524,False
宿利原簡易郵便局,鹿児島県,錦江町,神川,31.267695,130.834046,3513.585142409528,4630762621,False
宮城簡易郵便局,大分県,竹田市,大字炭竃,32.986144,131.312109,3513.945806341854,,False
木戸郵便局（一時閉鎖）,福島県,楢葉町,大字前原字田中内,37.261135,141.00076,3515.7634711456276,5541701013,False
上興部郵便局,北海道,西興部村,字東興,44.336826,142.875867,3519.25743586527,6642470013,False
河山郵便局,山口県,岩国市,美川町四馬神字下宮ノ串,34.242453,131.985335,3520.0334783460135,5131279822,False
西三川郵便局,新潟県,佐渡市,田切須,37.899966,138.287939,3524.081143868958,5638627333,True
東成瀬郵便局,秋田県,東成瀬村,田子内字肴沢,39.172306,140.676825,3526.0518191110787,5840650431,False
遠幌郵便局,北海道,夕張市,南部岳見町,43.010724,142.048642,3527.2837279767846,6442401324,False
黒瀬簡易郵便局,鹿児島県,南さつま市,片浦,31.38589400470794,130.17297230377568,3529.556047877409,4730016324,True
山ヶ野金山郵便局,鹿児島県,霧島市,横川町上ノ,31.903347,130.640094,3531.1035926139734,4730658113,False
木野俣郵便局,山形県,鶴岡市,木野俣,38.565681,139.686378,3534.137946736744,5739657444,False
夏尾簡易郵便局,宮崎県,都城市,夏尾町,31.844777,130.973815,3535.5146338200175,4730671724,False
手打郵便局,鹿児島県,薩摩川内市,下甑町手打,31.636766,129.709177,3536.8509579055594,4729356623,True
国上郵便局,鹿児島県,西之表市,国上,30.804782,131.037897,3537.3168153803213,4631106331,True
国縫郵便局,北海道,長万部町,字国縫,42.436538,140.322291,3540.1408895481386,6340522524,False
古武井郵便局,北海道,函館市,日ノ浜町,41.787475,141.106809,3542.761218543245,6241504823,False
秋ノ宮郵便局,秋田県,湯沢市,秋ノ宮,38.986765,140.485739,3545.938526533054,5840338824,False
山下郵便局,宮崎県,宮崎市,浦之名去川（去川）,31.920027026085727,131.23474527641113,3546.4175970338733,4731710824,False
頓別郵便局,北海道,浜頓別町,字頓別,45.130802,142.394013,3546.984251816797,6742535141,False
城蓮簡易郵便局,島根県,大田市,朝山町朝倉,35.248954,132.566408,3549.079924936812,5232649534,False
種簡易郵便局,島根県,益田市,下種町,34.723224,131.917655,3549.980934487001,5231076334,False
新見足立郵便局,岡山県,新見市,神郷油野落合，重藤,35.042433,133.38393,3553.8855775039456,5233435021,False
楢葉郵便局（一時閉鎖）,福島県,楢葉町,大字北田字鐘突堂,37.280854,141.000482,3556.585709538215,,False
本道寺簡易郵便局,山形県,西川町,大字月岡,38.450148,140.053017,3557.137859394588,,False
青ケ島郵便局,東京都,青ヶ島村,青ケ島村,32.46634,139.758464,3559.0735470174977,,True
作木郵便局,広島県,三次市,作木町下作木,34.867005,132.706778,3560.990954945086,5232254621,False
大平簡易郵便局,宮崎県,串間市,大字大平中原,31.556757,131.24736,3562.6634739546944,4731216944,False
塩津簡易郵便局,島根県,出雲市,美保町,35.480147,132.790027,3563.018343305397,5332167331,False
新坂郵便局,広島県,神石高原町,新免,34.830441,133.288301,3563.2641731785807,5233129331,False
札比内郵便局,北海道,月形町,札比内第５区,43.37159,141.744622,3566.8183222061957,6541054941,False
小友郵便局,岩手県,遠野市,字下鱒沢３３地割,39.271247,141.419614,3568.515388582287,5841732341,False
田森郵便局,広島県,庄原市,東城町粟田,34.93838144740039,133.2783129935544,3568.925265391928,5233322232,False
西伯中谷簡易郵便局,鳥取県,南部町,下中谷入蔵,35.304203618272226,133.32536144980926,3572.1841105638496,,False
福井郵便局,山口県,萩市,大字黒川,34.435720519922555,131.48295214208622,3576.6891377191514,5131532823,False
土佐清水松尾郵便局,高知県,土佐清水市,松尾,32.734005,132.983881,3578.0721206569847,4932078821,False
西越郵便局,青森県,新郷村,大字西越,40.442449,141.202008,3578.8731456611717,6041513611,False
柳田簡易郵便局,青森県,深浦町,大字柳田,40.740441,140.12264,3581.1429783855774,6140008944,False
中津良郵便局,長崎県,平戸市,下中津良町,33.239676120519434,129.44062285528224,3584.8961108688122,4929638533,False
瑞穂郵便局,石川県,能登町,字瑞穂町,37.280949,137.042773,3585.27605793555,5537703332,False
住吉簡易郵便局,秋田県,由利本荘市,東由利田代,39.268117,140.260476,3587.6767930344276,5840722022,False
日貫郵便局,島根県,邑南町,日貫,34.883298,132.357948,3589.704754660701,5232225843,False
鯛之浦郵便局,長崎県,新上五島町,鯛ノ浦阿瀬津郷,32.951523,129.10107,3590.8817372911158,4929304811,True
笛水簡易郵便局,宮崎県,都城市,高崎町笛水後平,31.930892,131.119464,3593.147659172867,4731701941,False
牧郵便局,広島県,神石高原町,牧字牧郷,34.764155,133.19715,3594.4824636492854,5233111542,False
沖浦郵便局,山口県,周防大島町,大字戸田,33.88509457810663,132.19508149184307,3602.3770598433507,5032616521,False
西石原郵便局,高知県,土佐町,西石原,33.69066,133.464656,3603.2737678516537,5033432733,False
川根郵便局,広島県,安芸高田市,高宮町川根,34.827889,132.678049,3606.982881344799,5232159413,False
堀内郵便局,岩手県,野田村,大字玉川,40.048244646115506,141.86204138718546,3608.325227176445,6041065844,False
賀見畑簡易郵便局,山口県,岩国市,美和町下畑北原,34.256756,132.065037,3610.5186116669447,5132300533,False
不動寺簡易郵便局,石川県,能登町,字不動寺,37.336913,137.209864,3611.1209672494583,5637010624,False
上真玉簡易郵便局,大分県,豊後高田市,城前,33.59331628433161,131.5100217242468,3612.5804938338392,5031341022,False
宗頭郵便局,山口県,長門市,三隅上,34.351393,131.298495,3613.7594228156545,5131422322,False
岩車簡易郵便局,石川県,穴水町,字岩車,37.216927,136.955268,3614.575757271402,5536676612,False
橋上郵便局,高知県,宿毛市,橋上町橋上,32.981552,132.770172,3616.1284011907187,4932367143,False
川原簡易郵便局,鹿児島県,錦江町,田代川原,31.187208,130.833035,3616.3229935807085,4630662623,False
飽海大沢郵便局,山形県,酒田市,大蕨字脇,38.96358563556497,139.98807428943556,3616.5363121708297,5839375931,False
田耕郵便局,山口県,下関市,豊北町大字田耕,34.27041271115994,130.98971302999615,3617.2920140722567,5130372913,False
平子駅前簡易郵便局,広島県,庄原市,西城町栗,34.91255813447659,133.10033288396264,3619.086485246597,5233209831,False
大船郵便局,北海道,函館市,大船町,41.96494,140.919555,3620.48534661685,6240775343,False
十和田湖郵便局,秋田県,小坂町,十和田湖字休平,40.42808561588487,140.894446317458,3623.7641276069653,6040571123,False
笹倉簡易郵便局,熊本県,阿蘇市,波野大字小地野,32.961032,131.202178,3624.2591763295554,4931315613,False
下平簡易郵便局,熊本県,天草市,深海町舟津,32.265599,130.107511,3629.791183095139,4830301843,False
中筋郵便局,愛媛県,西予市,野村町高瀬,33.414581,132.634538,3630.8554731644294,5032059042,False
大泉郵便局,山形県,鶴岡市,上田沢,38.523189,139.788873,3634.3539319133993,5739662333,False
八木浜郵便局,北海道,羅臼町,礼文町,43.973791,145.150387,3636.5389328343526,6545716233,False
椿郵便局,徳島県,阿南市,椿町,33.83323,134.67825,3636.9323819251845,5034559434,False
岩瀬浦郵便局,長崎県,新上五島町,岩瀬浦郷,32.880808,129.082629,3637.472385374948,4929205641,True
清水郵便局,愛媛県,鬼北町,大字清水,33.303097,132.689952,3638.35198425571,4932756513,False
宮地岳郵便局,熊本県,天草市,宮地岳町,32.383676,130.127644,3640.7617088165116,4830416011,False
上石見郵便局,鳥取県,日南町,中石見友広２,35.11282421836535,133.35090249677725,3643.480574999065,5233523831,False
波佐郵便局,島根県,浜田市,金城町長田,34.779446,132.197826,3650.0245680208095,5232113542,False
